{
"type": "FeatureCollection",
"name": "airport-gjson",
"crs": { "type": "name", "properties": { "name": "urn:ogc:def:crs:OGC:1.3:CRS84" } },
"features": [
{ "type": "Feature", "properties": { "ObjectID": 0, "NAME": "Inuvik Mike Zubko", "ICAO": "CYEV" }, "geometry": { "type": "Point", "coordinates": [ -133.482775976845005, 68.304162949200176 ] } },
{ "type": "Feature", "properties": { "ObjectID": 1, "NAME": "Resolute Bay", "ICAO": "CYRB" }, "geometry": { "type": "Point", "coordinates": [ -94.969444976845011, 74.716941949200191 ] } },
{ "type": "Feature", "properties": { "ObjectID": 2, "NAME": "Provideniya Bay", "ICAO": "UHMD" }, "geometry": { "type": "Point", "coordinates": [ -173.243308976845015, 64.37813794920018 ] } },
{ "type": "Feature", "properties": { "ObjectID": 3, "NAME": "Ralph Wien Mem", "ICAO": "PAOT" }, "geometry": { "type": "Point", "coordinates": [ -162.598549976845021, 66.884673949200177 ] } },
{ "type": "Feature", "properties": { "ObjectID": 4, "NAME": "Nome", "ICAO": "PAOM" }, "geometry": { "type": "Point", "coordinates": [ -165.44524997684502, 64.512201949200175 ] } },
{ "type": "Feature", "properties": { "ObjectID": 5, "NAME": "Bethel", "ICAO": "PABE" }, "geometry": { "type": "Point", "coordinates": [ -161.837995976845008, 60.779775949200172 ] } },
{ "type": "Feature", "properties": { "ObjectID": 6, "NAME": "Dillingham", "ICAO": "PADL" }, "geometry": { "type": "Point", "coordinates": [ -158.503342976845005, 59.045412949200184 ] } },
{ "type": "Feature", "properties": { "ObjectID": 7, "NAME": "Edward G Pitka Sr", "ICAO": "PAGA" }, "geometry": { "type": "Point", "coordinates": [ -156.93741497684502, 64.736175949200174 ] } },
{ "type": "Feature", "properties": { "ObjectID": 8, "NAME": "Fairbanks Intl", "ICAO": "PAFA" }, "geometry": { "type": "Point", "coordinates": [ -147.856270976845025, 64.815114949200179 ] } },
{ "type": "Feature", "properties": { "ObjectID": 9, "NAME": "Mc Grath", "ICAO": null }, "geometry": { "type": "Point", "coordinates": [ -155.605765976845021, 62.952870949200175 ] } },
{ "type": "Feature", "properties": { "ObjectID": 10, "NAME": "Talkeetna", "ICAO": null }, "geometry": { "type": "Point", "coordinates": [ -150.093697976845021, 62.320494949200182 ] } },
{ "type": "Feature", "properties": { "ObjectID": 11, "NAME": "Gulkana", "ICAO": "PAGK" }, "geometry": { "type": "Point", "coordinates": [ -145.456636976845004, 62.154885949200178 ] } },
{ "type": "Feature", "properties": { "ObjectID": 12, "NAME": "Northway", "ICAO": "PAOR" }, "geometry": { "type": "Point", "coordinates": [ -141.929131976845014, 62.961330949200175 ] } },
{ "type": "Feature", "properties": { "ObjectID": 13, "NAME": "Palmer Muni", "ICAO": "PAAQ" }, "geometry": { "type": "Point", "coordinates": [ -149.088820976845, 61.594743949200179 ] } },
{ "type": "Feature", "properties": { "ObjectID": 14, "NAME": "Ted Stevens Anchorage Intl", "ICAO": "PANC" }, "geometry": { "type": "Point", "coordinates": [ -149.996362976845006, 61.174362949200173 ] } },
{ "type": "Feature", "properties": { "ObjectID": 15, "NAME": "Merrill Fld", "ICAO": "PAMR" }, "geometry": { "type": "Point", "coordinates": [ -149.844442976845016, 61.213539949200182 ] } },
{ "type": "Feature", "properties": { "ObjectID": 16, "NAME": "Kenai Muni", "ICAO": "PAEN" }, "geometry": { "type": "Point", "coordinates": [ -151.244995976845019, 60.573108949200176 ] } },
{ "type": "Feature", "properties": { "ObjectID": 17, "NAME": "King Salmon", "ICAO": "PAKN" }, "geometry": { "type": "Point", "coordinates": [ -156.649216976845025, 58.676799949200174 ] } },
{ "type": "Feature", "properties": { "ObjectID": 18, "NAME": "Kodiak", "ICAO": "PADQ" }, "geometry": { "type": "Point", "coordinates": [ -152.493853976845003, 57.749970949200176 ] } },
{ "type": "Feature", "properties": { "ObjectID": 19, "NAME": "Whitehorse Intl", "ICAO": "CYXY" }, "geometry": { "type": "Point", "coordinates": [ -135.067270976845009, 60.709548949200183 ] } },
{ "type": "Feature", "properties": { "ObjectID": 20, "NAME": "Yakutat", "ICAO": null }, "geometry": { "type": "Point", "coordinates": [ -139.660249976845023, 59.503305949200183 ] } },
{ "type": "Feature", "properties": { "ObjectID": 21, "NAME": "Sitka Rocky Gutierrez", "ICAO": "PASI" }, "geometry": { "type": "Point", "coordinates": [ -135.361606976844996, 57.047133949200173 ] } },
{ "type": "Feature", "properties": { "ObjectID": 22, "NAME": "Cold Bay", "ICAO": "PACD" }, "geometry": { "type": "Point", "coordinates": [ -162.724261976845014, 55.20559894920018 ] } },
{ "type": "Feature", "properties": { "ObjectID": 23, "NAME": "Yellowknife", "ICAO": "CYZF" }, "geometry": { "type": "Point", "coordinates": [ -114.440278976845008, 62.462775949200179 ] } },
{ "type": "Feature", "properties": { "ObjectID": 24, "NAME": "Watson Lake", "ICAO": "CYQH" }, "geometry": { "type": "Point", "coordinates": [ -128.822503976845013, 60.116385949200179 ] } },
{ "type": "Feature", "properties": { "ObjectID": 25, "NAME": "Juneau Intl", "ICAO": null }, "geometry": { "type": "Point", "coordinates": [ -134.576275976845011, 58.354968949200185 ] } },
{ "type": "Feature", "properties": { "ObjectID": 26, "NAME": "Hay River", "ICAO": "CYHY" }, "geometry": { "type": "Point", "coordinates": [ -115.782781976845015, 60.839724949200175 ] } },
{ "type": "Feature", "properties": { "ObjectID": 27, "NAME": "Fort Nelson", "ICAO": "CYYE" }, "geometry": { "type": "Point", "coordinates": [ -122.596942976845014, 58.836387949200173 ] } },
{ "type": "Feature", "properties": { "ObjectID": 28, "NAME": "High Level", "ICAO": "CYOJ" }, "geometry": { "type": "Point", "coordinates": [ -117.164722976845013, 58.621386949200172 ] } },
{ "type": "Feature", "properties": { "ObjectID": 29, "NAME": "Fort Smith", "ICAO": "CYSM" }, "geometry": { "type": "Point", "coordinates": [ -111.961939976845017, 60.020274949200171 ] } },
{ "type": "Feature", "properties": { "ObjectID": 30, "NAME": "Fort Mcmurray", "ICAO": "CYMM" }, "geometry": { "type": "Point", "coordinates": [ -111.221941976845017, 56.653329949200185 ] } },
{ "type": "Feature", "properties": { "ObjectID": 31, "NAME": "Lynn Lake", "ICAO": "CYYL" }, "geometry": { "type": "Point", "coordinates": [ -101.076106976845011, 56.863884949200184 ] } },
{ "type": "Feature", "properties": { "ObjectID": 32, "NAME": "Churchill", "ICAO": "CYYQ" }, "geometry": { "type": "Point", "coordinates": [ -94.064998976845018, 58.739169949200175 ] } },
{ "type": "Feature", "properties": { "ObjectID": 33, "NAME": "Prince Rupert", "ICAO": "CYPR" }, "geometry": { "type": "Point", "coordinates": [ -130.444717976845027, 54.286113949200171 ] } },
{ "type": "Feature", "properties": { "ObjectID": 34, "NAME": "Terrace", "ICAO": "CYXT" }, "geometry": { "type": "Point", "coordinates": [ -128.577496976844998, 54.466392949200184 ] } },
{ "type": "Feature", "properties": { "ObjectID": 35, "NAME": "Smithers", "ICAO": "CYYD" }, "geometry": { "type": "Point", "coordinates": [ -127.182775976845022, 54.824718949200175 ] } },
{ "type": "Feature", "properties": { "ObjectID": 36, "NAME": "Port Hardy", "ICAO": "CYZT" }, "geometry": { "type": "Point", "coordinates": [ -127.366663976845018, 50.680551949200179 ] } },
{ "type": "Feature", "properties": { "ObjectID": 37, "NAME": "Fort St John", "ICAO": "CYXJ" }, "geometry": { "type": "Point", "coordinates": [ -120.740278976845019, 56.238051949200184 ] } },
{ "type": "Feature", "properties": { "ObjectID": 38, "NAME": "Dawson Creek", "ICAO": "CYDQ" }, "geometry": { "type": "Point", "coordinates": [ -120.182998976845013, 55.742331949200178 ] } },
{ "type": "Feature", "properties": { "ObjectID": 39, "NAME": "Grande Prairie", "ICAO": "CYQU" }, "geometry": { "type": "Point", "coordinates": [ -118.885000976845021, 55.179723949200181 ] } },
{ "type": "Feature", "properties": { "ObjectID": 40, "NAME": "Prince George", "ICAO": "CYXS" }, "geometry": { "type": "Point", "coordinates": [ -122.678887976845004, 53.889447949200175 ] } },
{ "type": "Feature", "properties": { "ObjectID": 41, "NAME": "Peace River", "ICAO": "CYPE" }, "geometry": { "type": "Point", "coordinates": [ -117.447223976845009, 56.226945949200172 ] } },
{ "type": "Feature", "properties": { "ObjectID": 42, "NAME": "Slave Lake", "ICAO": "CYZH" }, "geometry": { "type": "Point", "coordinates": [ -114.778336976845011, 55.293330949200183 ] } },
{ "type": "Feature", "properties": { "ObjectID": 43, "NAME": "Whitecourt", "ICAO": "CYZU" }, "geometry": { "type": "Point", "coordinates": [ -115.786669976845019, 54.14388694920018 ] } },
{ "type": "Feature", "properties": { "ObjectID": 44, "NAME": "Edmonton City Centre", "ICAO": "CYXD" }, "geometry": { "type": "Point", "coordinates": [ -113.520559976845021, 53.572503949200183 ] } },
{ "type": "Feature", "properties": { "ObjectID": 45, "NAME": "Quesnel", "ICAO": "CYQZ" }, "geometry": { "type": "Point", "coordinates": [ -122.510002976845016, 53.02611394920018 ] } },
{ "type": "Feature", "properties": { "ObjectID": 46, "NAME": "Williams Lake", "ICAO": "CYWL" }, "geometry": { "type": "Point", "coordinates": [ -122.054170976845015, 52.183056949200179 ] } },
{ "type": "Feature", "properties": { "ObjectID": 47, "NAME": "Kamloops", "ICAO": "CYKA" }, "geometry": { "type": "Point", "coordinates": [ -120.444439976845018, 50.702223949200175 ] } },
{ "type": "Feature", "properties": { "ObjectID": 48, "NAME": "Edmonton Intl", "ICAO": "CYEG" }, "geometry": { "type": "Point", "coordinates": [ -113.586349976845014, 53.306922949200185 ] } },
{ "type": "Feature", "properties": { "ObjectID": 49, "NAME": "Red Deer Regional", "ICAO": "CYQF" }, "geometry": { "type": "Point", "coordinates": [ -113.894446976845018, 52.182219949200174 ] } },
{ "type": "Feature", "properties": { "ObjectID": 50, "NAME": "Calgary Springbank", "ICAO": "CYBW" }, "geometry": { "type": "Point", "coordinates": [ -114.374443976845015, 51.10305694920018 ] } },
{ "type": "Feature", "properties": { "ObjectID": 51, "NAME": "Calgary Intl", "ICAO": "CYYC" }, "geometry": { "type": "Point", "coordinates": [ -114.011212976845002, 51.130947949200177 ] } },
{ "type": "Feature", "properties": { "ObjectID": 52, "NAME": "Campbell River", "ICAO": "CYBL" }, "geometry": { "type": "Point", "coordinates": [ -125.270833976845012, 49.950831949200179 ] } },
{ "type": "Feature", "properties": { "ObjectID": 53, "NAME": "Bowerman", "ICAO": "KHQM" }, "geometry": { "type": "Point", "coordinates": [ -123.936556976845011, 46.971192949200173 ] } },
{ "type": "Feature", "properties": { "ObjectID": 54, "NAME": "Astoria Rgnl", "ICAO": null }, "geometry": { "type": "Point", "coordinates": [ -123.878695976845009, 46.157970949200177 ] } },
{ "type": "Feature", "properties": { "ObjectID": 55, "NAME": "Tillamook", "ICAO": null }, "geometry": { "type": "Point", "coordinates": [ -123.814381976845013, 45.418242949200177 ] } },
{ "type": "Feature", "properties": { "ObjectID": 56, "NAME": "Kelowna", "ICAO": "CYLW" }, "geometry": { "type": "Point", "coordinates": [ -119.379271976845018, 49.952001949200181 ] } },
{ "type": "Feature", "properties": { "ObjectID": 57, "NAME": "Penticton", "ICAO": "CYYF" }, "geometry": { "type": "Point", "coordinates": [ -119.602219976845021, 49.463058949200175 ] } },
{ "type": "Feature", "properties": { "ObjectID": 58, "NAME": "Vancouver Intl", "ICAO": "CYVR" }, "geometry": { "type": "Point", "coordinates": [ -123.17774897684501, 49.194813949200181 ] } },
{ "type": "Feature", "properties": { "ObjectID": 59, "NAME": "Pitt Meadows", "ICAO": "CYPK" }, "geometry": { "type": "Point", "coordinates": [ -122.710000976845009, 49.216107949200179 ] } },
{ "type": "Feature", "properties": { "ObjectID": 60, "NAME": "Boundary Bay", "ICAO": "CZBB" }, "geometry": { "type": "Point", "coordinates": [ -123.012220976845015, 49.074168949200171 ] } },
{ "type": "Feature", "properties": { "ObjectID": 61, "NAME": "Abbotsford", "ICAO": "CYXX" }, "geometry": { "type": "Point", "coordinates": [ -122.363329976845009, 49.02528094920018 ] } },
{ "type": "Feature", "properties": { "ObjectID": 62, "NAME": "Victoria Intl", "ICAO": "CYYJ" }, "geometry": { "type": "Point", "coordinates": [ -123.431107976845013, 48.640665949200184 ] } },
{ "type": "Feature", "properties": { "ObjectID": 63, "NAME": "Roche Harbor", "ICAO": null }, "geometry": { "type": "Point", "coordinates": [ -123.138517976845009, 48.612324949200172 ] } },
{ "type": "Feature", "properties": { "ObjectID": 64, "NAME": "Bellingham Intl", "ICAO": "KBLI" }, "geometry": { "type": "Point", "coordinates": [ -122.53752497684502, 48.792747949200177 ] } },
{ "type": "Feature", "properties": { "ObjectID": 65, "NAME": "Friday Harbor", "ICAO": null }, "geometry": { "type": "Point", "coordinates": [ -123.024361976845015, 48.521973949200174 ] } },
{ "type": "Feature", "properties": { "ObjectID": 66, "NAME": "Anacortes", "ICAO": null }, "geometry": { "type": "Point", "coordinates": [ -122.662390976845018, 48.498996949200176 ] } },
{ "type": "Feature", "properties": { "ObjectID": 67, "NAME": "Skagit Rgnl", "ICAO": null }, "geometry": { "type": "Point", "coordinates": [ -122.420857976845014, 48.470889949200185 ] } },
{ "type": "Feature", "properties": { "ObjectID": 68, "NAME": "Wes Lupien", "ICAO": null }, "geometry": { "type": "Point", "coordinates": [ -122.673505976845007, 48.251487949200182 ] } },
{ "type": "Feature", "properties": { "ObjectID": 69, "NAME": "William R Fairchild Intl", "ICAO": "KCLM" }, "geometry": { "type": "Point", "coordinates": [ -123.499696976845016, 48.120195949200181 ] } },
{ "type": "Feature", "properties": { "ObjectID": 70, "NAME": "Jefferson Co Intl", "ICAO": null }, "geometry": { "type": "Point", "coordinates": [ -122.810647976845019, 48.053811949200181 ] } },
{ "type": "Feature", "properties": { "ObjectID": 71, "NAME": "Arlington Muni", "ICAO": null }, "geometry": { "type": "Point", "coordinates": [ -122.159020976845014, 48.160749949200181 ] } },
{ "type": "Feature", "properties": { "ObjectID": 72, "NAME": "Snohomish Co", "ICAO": "KPAE" }, "geometry": { "type": "Point", "coordinates": [ -122.281564976845004, 47.906337949200179 ] } },
{ "type": "Feature", "properties": { "ObjectID": 73, "NAME": "Dorothy Scott", "ICAO": null }, "geometry": { "type": "Point", "coordinates": [ -119.411959976845012, 48.958968949200184 ] } },
{ "type": "Feature", "properties": { "ObjectID": 74, "NAME": "Chelan Muni", "ICAO": null }, "geometry": { "type": "Point", "coordinates": [ -119.942698976845008, 47.866008949200179 ] } },
{ "type": "Feature", "properties": { "ObjectID": 75, "NAME": "Omak", "ICAO": null }, "geometry": { "type": "Point", "coordinates": [ -119.518051976845015, 48.46441894920018 ] } },
{ "type": "Feature", "properties": { "ObjectID": 76, "NAME": "Castlegar", "ICAO": "CYCG" }, "geometry": { "type": "Point", "coordinates": [ -117.632497976845002, 49.296387949200181 ] } },
{ "type": "Feature", "properties": { "ObjectID": 77, "NAME": "Cranbrook", "ICAO": "CYXC" }, "geometry": { "type": "Point", "coordinates": [ -115.782223976845017, 49.610829949200181 ] } },
{ "type": "Feature", "properties": { "ObjectID": 78, "NAME": "High River", "ICAO": null }, "geometry": { "type": "Point", "coordinates": [ -113.833336976845004, 50.53332994920018 ] } },
{ "type": "Feature", "properties": { "ObjectID": 79, "NAME": "Lethbridge", "ICAO": "CYQL" }, "geometry": { "type": "Point", "coordinates": [ -112.799722976845018, 49.630278949200175 ] } },
{ "type": "Feature", "properties": { "ObjectID": 80, "NAME": "Boundary Co", "ICAO": null }, "geometry": { "type": "Point", "coordinates": [ -116.295214976845017, 48.725823949200176 ] } },
{ "type": "Feature", "properties": { "ObjectID": 81, "NAME": "Deer Park", "ICAO": null }, "geometry": { "type": "Point", "coordinates": [ -117.42666797684501, 47.966637949200177 ] } },
{ "type": "Feature", "properties": { "ObjectID": 82, "NAME": "Sandpoint", "ICAO": null }, "geometry": { "type": "Point", "coordinates": [ -116.56013897684501, 48.299547949200175 ] } },
{ "type": "Feature", "properties": { "ObjectID": 83, "NAME": "Libby", "ICAO": null }, "geometry": { "type": "Point", "coordinates": [ -115.490245976845017, 48.283842949200178 ] } },
{ "type": "Feature", "properties": { "ObjectID": 84, "NAME": "Glacier Park Intl", "ICAO": "KFCA" }, "geometry": { "type": "Point", "coordinates": [ -114.25508597684501, 48.311418949200174 ] } },
{ "type": "Feature", "properties": { "ObjectID": 85, "NAME": "Bremerton National", "ICAO": "KPWT" }, "geometry": { "type": "Point", "coordinates": [ -122.762425976845009, 47.492751949200184 ] } },
{ "type": "Feature", "properties": { "ObjectID": 86, "NAME": "Sanderson Fld", "ICAO": null }, "geometry": { "type": "Point", "coordinates": [ -123.147553976845018, 47.233551949200177 ] } },
{ "type": "Feature", "properties": { "ObjectID": 87, "NAME": "Tacoma Narrows", "ICAO": "KTIW" }, "geometry": { "type": "Point", "coordinates": [ -122.578096976845018, 47.267931949200175 ] } },
{ "type": "Feature", "properties": { "ObjectID": 88, "NAME": "Boeing Fld King Co Intl", "ICAO": "KBFI" }, "geometry": { "type": "Point", "coordinates": [ -122.301958976845015, 47.529984949200184 ] } },
{ "type": "Feature", "properties": { "ObjectID": 89, "NAME": "Renton Muni", "ICAO": null }, "geometry": { "type": "Point", "coordinates": [ -122.215747976845009, 47.493138949200173 ] } },
{ "type": "Feature", "properties": { "ObjectID": 90, "NAME": "Seattle Tacoma Intl", "ICAO": "KSEA" }, "geometry": { "type": "Point", "coordinates": [ -122.309302976845004, 47.449002949200178 ] } },
{ "type": "Feature", "properties": { "ObjectID": 91, "NAME": "Auburn Muni", "ICAO": null }, "geometry": { "type": "Point", "coordinates": [ -122.226655976845009, 47.327682949200181 ] } },
{ "type": "Feature", "properties": { "ObjectID": 92, "NAME": "Crest Airpark", "ICAO": null }, "geometry": { "type": "Point", "coordinates": [ -122.103535976845009, 47.337096949200173 ] } },
{ "type": "Feature", "properties": { "ObjectID": 93, "NAME": "Olympia", "ICAO": "KOLM" }, "geometry": { "type": "Point", "coordinates": [ -122.902204976845013, 46.970499949200175 ] } },
{ "type": "Feature", "properties": { "ObjectID": 94, "NAME": "Toledo Winlock Ed Carlson Mem Fld", "ICAO": null }, "geometry": { "type": "Point", "coordinates": [ -122.806858976845007, 46.477092949200184 ] } },
{ "type": "Feature", "properties": { "ObjectID": 95, "NAME": "Pierce Co Thun Fld", "ICAO": null }, "geometry": { "type": "Point", "coordinates": [ -122.287189976845013, 47.103915949200172 ] } },
{ "type": "Feature", "properties": { "ObjectID": 96, "NAME": "Pangborn Mem", "ICAO": null }, "geometry": { "type": "Point", "coordinates": [ -120.206857976845015, 47.398863949200177 ] } },
{ "type": "Feature", "properties": { "ObjectID": 97, "NAME": "Grant Co Intl", "ICAO": null }, "geometry": { "type": "Point", "coordinates": [ -119.320186976845008, 47.20770394920018 ] } },
{ "type": "Feature", "properties": { "ObjectID": 98, "NAME": "Bowers Fld", "ICAO": null }, "geometry": { "type": "Point", "coordinates": [ -120.543304976845008, 47.031357949200185 ] } },
{ "type": "Feature", "properties": { "ObjectID": 99, "NAME": "Yakima Air Terminal Mc Allister Fld", "ICAO": "KYKM" }, "geometry": { "type": "Point", "coordinates": [ -120.544060976845003, 46.568172949200175 ] } },
{ "type": "Feature", "properties": { "ObjectID": 100, "NAME": "Kelso Longview", "ICAO": null }, "geometry": { "type": "Point", "coordinates": [ -122.898388976845013, 46.118001949200178 ] } },
{ "type": "Feature", "properties": { "ObjectID": 101, "NAME": "Scappoose Industrial Airpark", "ICAO": null }, "geometry": { "type": "Point", "coordinates": [ -122.862361976845023, 45.772509949200185 ] } },
{ "type": "Feature", "properties": { "ObjectID": 102, "NAME": "Portland Hillsboro", "ICAO": null }, "geometry": { "type": "Point", "coordinates": [ -122.949823976845011, 45.540390949200173 ] } },
{ "type": "Feature", "properties": { "ObjectID": 103, "NAME": "Pearson Fld", "ICAO": null }, "geometry": { "type": "Point", "coordinates": [ -122.656486976845002, 45.62045494920018 ] } },
{ "type": "Feature", "properties": { "ObjectID": 104, "NAME": "Portland Intl", "ICAO": "KPDX" }, "geometry": { "type": "Point", "coordinates": [ -122.597500976845012, 45.58872094920018 ] } },
{ "type": "Feature", "properties": { "ObjectID": 105, "NAME": "Portland Troutdale", "ICAO": null }, "geometry": { "type": "Point", "coordinates": [ -122.401255976845022, 45.549372949200176 ] } },
{ "type": "Feature", "properties": { "ObjectID": 106, "NAME": "Mc Minnville Muni", "ICAO": "KMMV" }, "geometry": { "type": "Point", "coordinates": [ -123.135943976845013, 45.194439949200174 ] } },
{ "type": "Feature", "properties": { "ObjectID": 107, "NAME": "Aurora State", "ICAO": null }, "geometry": { "type": "Point", "coordinates": [ -122.77005797684501, 45.247134949200174 ] } },
{ "type": "Feature", "properties": { "ObjectID": 108, "NAME": "Ken Jernstedt Airfield", "ICAO": null }, "geometry": { "type": "Point", "coordinates": [ -121.536463976845013, 45.672618949200185 ] } },
{ "type": "Feature", "properties": { "ObjectID": 109, "NAME": "Columbia Gorge Rgnl The Dalles Muni", "ICAO": null }, "geometry": { "type": "Point", "coordinates": [ -121.16734697684501, 45.61854694920018 ] } },
{ "type": "Feature", "properties": { "ObjectID": 110, "NAME": "Prosser", "ICAO": null }, "geometry": { "type": "Point", "coordinates": [ -119.791372976845011, 46.213356949200175 ] } },
{ "type": "Feature", "properties": { "ObjectID": 111, "NAME": "Richland", "ICAO": null }, "geometry": { "type": "Point", "coordinates": [ -119.304193976845013, 46.305642949200177 ] } },
{ "type": "Feature", "properties": { "ObjectID": 112, "NAME": "Tri Cities", "ICAO": null }, "geometry": { "type": "Point", "coordinates": [ -119.119027976845018, 46.264683949200176 ] } },
{ "type": "Feature", "properties": { "ObjectID": 113, "NAME": "Vista Fld", "ICAO": null }, "geometry": { "type": "Point", "coordinates": [ -119.210017976845009, 46.218576949200184 ] } },
{ "type": "Feature", "properties": { "ObjectID": 114, "NAME": "Walla Walla Rgnl", "ICAO": "KALW" }, "geometry": { "type": "Point", "coordinates": [ -118.28787797684501, 46.09488994920018 ] } },
{ "type": "Feature", "properties": { "ObjectID": 115, "NAME": "Hermiston Muni", "ICAO": null }, "geometry": { "type": "Point", "coordinates": [ -119.259166976845009, 45.828219949200175 ] } },
{ "type": "Feature", "properties": { "ObjectID": 116, "NAME": "Martin Fld", "ICAO": null }, "geometry": { "type": "Point", "coordinates": [ -118.417747976845021, 46.04569594920018 ] } },
{ "type": "Feature", "properties": { "ObjectID": 117, "NAME": "Eastern Oregon Rgnl At Pendleton", "ICAO": null }, "geometry": { "type": "Point", "coordinates": [ -118.841440976845007, 45.695055949200182 ] } },
{ "type": "Feature", "properties": { "ObjectID": 118, "NAME": "Spokane Intl", "ICAO": "KGEG" }, "geometry": { "type": "Point", "coordinates": [ -117.533839976845002, 47.619858949200179 ] } },
{ "type": "Feature", "properties": { "ObjectID": 119, "NAME": "Felts Fld", "ICAO": "KSFF" }, "geometry": { "type": "Point", "coordinates": [ -117.32255597684501, 47.682822949200173 ] } },
{ "type": "Feature", "properties": { "ObjectID": 120, "NAME": "Coeur D Alene Air Terminal", "ICAO": null }, "geometry": { "type": "Point", "coordinates": [ -116.819617976845009, 47.774289949200181 ] } },
{ "type": "Feature", "properties": { "ObjectID": 121, "NAME": "St Maries Muni", "ICAO": null }, "geometry": { "type": "Point", "coordinates": [ -116.577391976845007, 47.327682949200181 ] } },
{ "type": "Feature", "properties": { "ObjectID": 122, "NAME": "Pullman Moscow Rgnl", "ICAO": null }, "geometry": { "type": "Point", "coordinates": [ -117.109579976845012, 46.743861949200181 ] } },
{ "type": "Feature", "properties": { "ObjectID": 123, "NAME": "Missoula Intl", "ICAO": "KMSO" }, "geometry": { "type": "Point", "coordinates": [ -114.090556976845022, 46.916301949200175 ] } },
{ "type": "Feature", "properties": { "ObjectID": 124, "NAME": "Lewiston Nez Perce Co", "ICAO": null }, "geometry": { "type": "Point", "coordinates": [ -117.015394976845016, 46.374492949200175 ] } },
{ "type": "Feature", "properties": { "ObjectID": 125, "NAME": "La Grande Union Co", "ICAO": null }, "geometry": { "type": "Point", "coordinates": [ -118.007113976845005, 45.290217949200184 ] } },
{ "type": "Feature", "properties": { "ObjectID": 126, "NAME": "Bowman Fld", "ICAO": null }, "geometry": { "type": "Point", "coordinates": [ -112.867843976845009, 46.15312894920018 ] } },
{ "type": "Feature", "properties": { "ObjectID": 127, "NAME": "Lemhi Co", "ICAO": null }, "geometry": { "type": "Point", "coordinates": [ -113.881333976845013, 45.123780949200182 ] } },
{ "type": "Feature", "properties": { "ObjectID": 128, "NAME": "Dillon", "ICAO": null }, "geometry": { "type": "Point", "coordinates": [ -112.552501976845008, 45.255360949200181 ] } },
{ "type": "Feature", "properties": { "ObjectID": 129, "NAME": "La Ronge", "ICAO": "CYVC" }, "geometry": { "type": "Point", "coordinates": [ -105.261943976845018, 55.151391949200175 ] } },
{ "type": "Feature", "properties": { "ObjectID": 130, "NAME": "North Battleford", "ICAO": "CYQW" }, "geometry": { "type": "Point", "coordinates": [ -108.243607976845013, 52.769163949200177 ] } },
{ "type": "Feature", "properties": { "ObjectID": 131, "NAME": "Prince Albert Glass Field", "ICAO": "CYPA" }, "geometry": { "type": "Point", "coordinates": [ -105.672775976845017, 53.214168949200172 ] } },
{ "type": "Feature", "properties": { "ObjectID": 132, "NAME": "Saskatoon J G Diefenbaker Intl", "ICAO": "CYXE" }, "geometry": { "type": "Point", "coordinates": [ -106.699720976845015, 52.170834949200184 ] } },
{ "type": "Feature", "properties": { "ObjectID": 133, "NAME": "Yorkton Muni", "ICAO": "CYQV" }, "geometry": { "type": "Point", "coordinates": [ -102.461665976845012, 51.264723949200175 ] } },
{ "type": "Feature", "properties": { "ObjectID": 134, "NAME": "Thompson", "ICAO": "CYTH" }, "geometry": { "type": "Point", "coordinates": [ -97.864168976845008, 55.801110949200179 ] } },
{ "type": "Feature", "properties": { "ObjectID": 135, "NAME": "The Pas", "ICAO": "CYQD" }, "geometry": { "type": "Point", "coordinates": [ -101.091109976845019, 53.97139294920018 ] } },
{ "type": "Feature", "properties": { "ObjectID": 136, "NAME": "Dauphin Barker", "ICAO": "CYDN" }, "geometry": { "type": "Point", "coordinates": [ -100.05250097684501, 51.10083394920018 ] } },
{ "type": "Feature", "properties": { "ObjectID": 137, "NAME": "Red Lake", "ICAO": "CYRL" }, "geometry": { "type": "Point", "coordinates": [ -93.793054976845013, 51.066939949200176 ] } },
{ "type": "Feature", "properties": { "ObjectID": 138, "NAME": "Medicine Hat", "ICAO": "CYXH" }, "geometry": { "type": "Point", "coordinates": [ -110.720830976845008, 50.018889949200172 ] } },
{ "type": "Feature", "properties": { "ObjectID": 139, "NAME": "Swift Current", "ICAO": "CYYN" }, "geometry": { "type": "Point", "coordinates": [ -107.690557976845014, 50.291940949200182 ] } },
{ "type": "Feature", "properties": { "ObjectID": 140, "NAME": "Cut Bank Muni", "ICAO": "KCTB" }, "geometry": { "type": "Point", "coordinates": [ -112.376146976845007, 48.608355949200174 ] } },
{ "type": "Feature", "properties": { "ObjectID": 141, "NAME": "Regina Intl", "ICAO": "CYQR" }, "geometry": { "type": "Point", "coordinates": [ -104.665828976845006, 50.431944949200172 ] } },
{ "type": "Feature", "properties": { "ObjectID": 142, "NAME": "Wokal Fld Glasgow Intl", "ICAO": "KGGW" }, "geometry": { "type": "Point", "coordinates": [ -106.614796976845014, 48.212454949200179 ] } },
{ "type": "Feature", "properties": { "ObjectID": 143, "NAME": "Estevan", "ICAO": "CYEN" }, "geometry": { "type": "Point", "coordinates": [ -102.965836976845011, 49.210275949200181 ] } },
{ "type": "Feature", "properties": { "ObjectID": 144, "NAME": "Mohall Muni", "ICAO": null }, "geometry": { "type": "Point", "coordinates": [ -101.536996976845018, 48.768384949200183 ] } },
{ "type": "Feature", "properties": { "ObjectID": 145, "NAME": "Sloulin Fld Intl", "ICAO": null }, "geometry": { "type": "Point", "coordinates": [ -103.642348976845014, 48.17793994920018 ] } },
{ "type": "Feature", "properties": { "ObjectID": 146, "NAME": "Minot Intl", "ICAO": "KMOT" }, "geometry": { "type": "Point", "coordinates": [ -101.280334976845012, 48.259380949200178 ] } },
{ "type": "Feature", "properties": { "ObjectID": 147, "NAME": "Great Falls Intl", "ICAO": "KGTF" }, "geometry": { "type": "Point", "coordinates": [ -111.370684976845013, 47.48199694920018 ] } },
{ "type": "Feature", "properties": { "ObjectID": 148, "NAME": "Helena Rgnl", "ICAO": "KHLN" }, "geometry": { "type": "Point", "coordinates": [ -111.982747976845019, 46.606809949200183 ] } },
{ "type": "Feature", "properties": { "ObjectID": 149, "NAME": "Bert Mooney", "ICAO": "KBTM" }, "geometry": { "type": "Point", "coordinates": [ -112.49747597684501, 45.954804949200181 ] } },
{ "type": "Feature", "properties": { "ObjectID": 150, "NAME": "Gallatin Fld", "ICAO": "KBZN" }, "geometry": { "type": "Point", "coordinates": [ -111.152983976845007, 45.777459949200178 ] } },
{ "type": "Feature", "properties": { "ObjectID": 151, "NAME": "Billings Logan Intl", "ICAO": "KBIL" }, "geometry": { "type": "Point", "coordinates": [ -108.542884976845016, 45.807663949200176 ] } },
{ "type": "Feature", "properties": { "ObjectID": 152, "NAME": "Frank Wiley Fld", "ICAO": "KMLS" }, "geometry": { "type": "Point", "coordinates": [ -105.886246976845015, 46.427970949200173 ] } },
{ "type": "Feature", "properties": { "ObjectID": 153, "NAME": "Dickinson Theodore Roosevelt Rgnl", "ICAO": "KDIK" }, "geometry": { "type": "Point", "coordinates": [ -102.801955976845008, 46.797384949200179 ] } },
{ "type": "Feature", "properties": { "ObjectID": 154, "NAME": "Lemmon Muni", "ICAO": null }, "geometry": { "type": "Point", "coordinates": [ -102.106174976845011, 45.918696949200182 ] } },
{ "type": "Feature", "properties": { "ObjectID": 155, "NAME": "Brandon Muni", "ICAO": "CYBR" }, "geometry": { "type": "Point", "coordinates": [ -99.951943976845016, 49.909998949200173 ] } },
{ "type": "Feature", "properties": { "ObjectID": 156, "NAME": "Winnipeg   St Andrews", "ICAO": "CYAV" }, "geometry": { "type": "Point", "coordinates": [ -97.03249697684501, 50.056392949200173 ] } },
{ "type": "Feature", "properties": { "ObjectID": 157, "NAME": "Southport", "ICAO": "CYPG" }, "geometry": { "type": "Point", "coordinates": [ -98.274721976845015, 49.902780949200178 ] } },
{ "type": "Feature", "properties": { "ObjectID": 158, "NAME": "Winnipeg Intl", "ICAO": "CYWG" }, "geometry": { "type": "Point", "coordinates": [ -97.227517976845007, 49.90386094920018 ] } },
{ "type": "Feature", "properties": { "ObjectID": 159, "NAME": "Devils Lake Muni", "ICAO": null }, "geometry": { "type": "Point", "coordinates": [ -98.908780976845009, 48.114246949200179 ] } },
{ "type": "Feature", "properties": { "ObjectID": 160, "NAME": "Cavalier Muni", "ICAO": null }, "geometry": { "type": "Point", "coordinates": [ -97.631932976845007, 48.783837949200176 ] } },
{ "type": "Feature", "properties": { "ObjectID": 161, "NAME": "Roseau Muni Rudy Billberg Fld", "ICAO": null }, "geometry": { "type": "Point", "coordinates": [ -95.697031976845011, 48.855999949200182 ] } },
{ "type": "Feature", "properties": { "ObjectID": 162, "NAME": "Grand Forks Intl", "ICAO": "KGFK" }, "geometry": { "type": "Point", "coordinates": [ -97.176109976845012, 47.949258949200171 ] } },
{ "type": "Feature", "properties": { "ObjectID": 163, "NAME": "Crookston Muni Kirkwood Fld", "ICAO": null }, "geometry": { "type": "Point", "coordinates": [ -96.621619976845011, 47.841690949200185 ] } },
{ "type": "Feature", "properties": { "ObjectID": 164, "NAME": "Thief River Falls Rgnl", "ICAO": null }, "geometry": { "type": "Point", "coordinates": [ -96.183364976845013, 48.06550294920018 ] } },
{ "type": "Feature", "properties": { "ObjectID": 165, "NAME": "Kenora", "ICAO": "CYQK" }, "geometry": { "type": "Point", "coordinates": [ -94.363051976845014, 49.788336949200172 ] } },
{ "type": "Feature", "properties": { "ObjectID": 166, "NAME": "Dryden Rgnl", "ICAO": "CYHD" }, "geometry": { "type": "Point", "coordinates": [ -92.744167976845006, 49.831662949200179 ] } },
{ "type": "Feature", "properties": { "ObjectID": 167, "NAME": "Baudette Intl", "ICAO": "KBDE" }, "geometry": { "type": "Point", "coordinates": [ -94.612225976845011, 48.728442949200172 ] } },
{ "type": "Feature", "properties": { "ObjectID": 168, "NAME": "Fort Frances Muni", "ICAO": "CYAG" }, "geometry": { "type": "Point", "coordinates": [ -93.439723976845016, 48.654165949200177 ] } },
{ "type": "Feature", "properties": { "ObjectID": 169, "NAME": "Falls Intl", "ICAO": "KINL" }, "geometry": { "type": "Point", "coordinates": [ -93.403066976845011, 48.566181949200171 ] } },
{ "type": "Feature", "properties": { "ObjectID": 170, "NAME": "Ely Muni", "ICAO": "KELO" }, "geometry": { "type": "Point", "coordinates": [ -91.830730976845018, 47.824545949200171 ] } },
{ "type": "Feature", "properties": { "ObjectID": 171, "NAME": "Bismarck Muni", "ICAO": "KBIS" }, "geometry": { "type": "Point", "coordinates": [ -100.745734976845014, 46.772733949200173 ] } },
{ "type": "Feature", "properties": { "ObjectID": 172, "NAME": "Jamestown Rgnl", "ICAO": "KJMS" }, "geometry": { "type": "Point", "coordinates": [ -98.678191976845014, 46.929720949200174 ] } },
{ "type": "Feature", "properties": { "ObjectID": 173, "NAME": "Barnes Co Muni", "ICAO": null }, "geometry": { "type": "Point", "coordinates": [ -98.017627976845006, 46.941006949200172 ] } },
{ "type": "Feature", "properties": { "ObjectID": 174, "NAME": "Hector Intl", "ICAO": "KFAR" }, "geometry": { "type": "Point", "coordinates": [ -96.815767976845009, 46.920648949200185 ] } },
{ "type": "Feature", "properties": { "ObjectID": 175, "NAME": "Edgeley Muni", "ICAO": null }, "geometry": { "type": "Point", "coordinates": [ -98.735557976845016, 46.348581949200181 ] } },
{ "type": "Feature", "properties": { "ObjectID": 176, "NAME": "Mobridge Muni", "ICAO": null }, "geometry": { "type": "Point", "coordinates": [ -100.407919976845008, 45.546501949200177 ] } },
{ "type": "Feature", "properties": { "ObjectID": 177, "NAME": "Britton Muni", "ICAO": null }, "geometry": { "type": "Point", "coordinates": [ -97.743136976845008, 45.815223949200174 ] } },
{ "type": "Feature", "properties": { "ObjectID": 178, "NAME": "Fergus Falls Muni Einar Mickelson Fld", "ICAO": null }, "geometry": { "type": "Point", "coordinates": [ -96.156688976845018, 46.284393949200179 ] } },
{ "type": "Feature", "properties": { "ObjectID": 179, "NAME": "Aberdeen Rgnl", "ICAO": "KABR" }, "geometry": { "type": "Point", "coordinates": [ -98.421835976845017, 45.449058949200179 ] } },
{ "type": "Feature", "properties": { "ObjectID": 180, "NAME": "Benson Muni", "ICAO": null }, "geometry": { "type": "Point", "coordinates": [ -95.650564976845018, 45.33193294920018 ] } },
{ "type": "Feature", "properties": { "ObjectID": 181, "NAME": "Bemidji Beltrami Co", "ICAO": null }, "geometry": { "type": "Point", "coordinates": [ -94.933723976845016, 47.509428949200185 ] } },
{ "type": "Feature", "properties": { "ObjectID": 182, "NAME": "Chisholm Hibbing", "ICAO": "KHIB" }, "geometry": { "type": "Point", "coordinates": [ -92.838991976845008, 47.386596949200182 ] } },
{ "type": "Feature", "properties": { "ObjectID": 183, "NAME": "Grand Rapids Itasca Co Gordon Newstrom", "ICAO": null }, "geometry": { "type": "Point", "coordinates": [ -93.509842976845007, 47.211105949200174 ] } },
{ "type": "Feature", "properties": { "ObjectID": 184, "NAME": "Park Rapids Muni Konshok Fld", "ICAO": null }, "geometry": { "type": "Point", "coordinates": [ -95.073133976845014, 46.900623949200181 ] } },
{ "type": "Feature", "properties": { "ObjectID": 185, "NAME": "Eveleth Virginia Muni", "ICAO": null }, "geometry": { "type": "Point", "coordinates": [ -92.498467976845006, 47.425080949200179 ] } },
{ "type": "Feature", "properties": { "ObjectID": 186, "NAME": "Duluth Intl", "ICAO": "KDLH" }, "geometry": { "type": "Point", "coordinates": [ -92.193646976845017, 46.842087949200177 ] } },
{ "type": "Feature", "properties": { "ObjectID": 187, "NAME": "Cloquet Carlton Co", "ICAO": null }, "geometry": { "type": "Point", "coordinates": [ -92.503606976845006, 46.70112994920018 ] } },
{ "type": "Feature", "properties": { "ObjectID": 188, "NAME": "Richard I Bong", "ICAO": null }, "geometry": { "type": "Point", "coordinates": [ -92.094655976845004, 46.689717949200173 ] } },
{ "type": "Feature", "properties": { "ObjectID": 189, "NAME": "Gogebic Iron Co", "ICAO": null }, "geometry": { "type": "Point", "coordinates": [ -90.131395976845013, 46.527474949200183 ] } },
{ "type": "Feature", "properties": { "ObjectID": 190, "NAME": "Chandler Fld", "ICAO": "KAXN" }, "geometry": { "type": "Point", "coordinates": [ -95.394667976845014, 45.866298949200171 ] } },
{ "type": "Feature", "properties": { "ObjectID": 191, "NAME": "Brainerd Lakes Rgnl", "ICAO": null }, "geometry": { "type": "Point", "coordinates": [ -94.137223976845007, 46.397856949200175 ] } },
{ "type": "Feature", "properties": { "ObjectID": 192, "NAME": "Willmar Muni John L Rice Fld", "ICAO": null }, "geometry": { "type": "Point", "coordinates": [ -95.088811976845008, 45.115680949200183 ] } },
{ "type": "Feature", "properties": { "ObjectID": 193, "NAME": "St Cloud Rgnl", "ICAO": "KSTC" }, "geometry": { "type": "Point", "coordinates": [ -94.059877976845016, 45.546555949200183 ] } },
{ "type": "Feature", "properties": { "ObjectID": 194, "NAME": "Anoka Co Blaine", "ICAO": null }, "geometry": { "type": "Point", "coordinates": [ -93.211384976845011, 45.145002949200176 ] } },
{ "type": "Feature", "properties": { "ObjectID": 195, "NAME": "Crystal", "ICAO": null }, "geometry": { "type": "Point", "coordinates": [ -93.353935976845008, 45.061986949200175 ] } },
{ "type": "Feature", "properties": { "ObjectID": 196, "NAME": "Shell Lake Muni", "ICAO": null }, "geometry": { "type": "Point", "coordinates": [ -91.920658976845004, 45.731379949200175 ] } },
{ "type": "Feature", "properties": { "ObjectID": 197, "NAME": "Amery Municipal", "ICAO": null }, "geometry": { "type": "Point", "coordinates": [ -92.375392976845006, 45.28114594920018 ] } },
{ "type": "Feature", "properties": { "ObjectID": 198, "NAME": "Rusk County", "ICAO": null }, "geometry": { "type": "Point", "coordinates": [ -91.000453976845009, 45.496839949200179 ] } },
{ "type": "Feature", "properties": { "ObjectID": 199, "NAME": "Prentice", "ICAO": null }, "geometry": { "type": "Point", "coordinates": [ -90.279319976845017, 45.543018949200174 ] } },
{ "type": "Feature", "properties": { "ObjectID": 200, "NAME": "Iqaluit", "ICAO": "CYFB" }, "geometry": { "type": "Point", "coordinates": [ -68.555830976845016, 63.756390949200181 ] } },
{ "type": "Feature", "properties": { "ObjectID": 201, "NAME": "Kuujjuaq", "ICAO": "CYVP" }, "geometry": { "type": "Point", "coordinates": [ -68.426941976845015, 58.096110949200181 ] } },
{ "type": "Feature", "properties": { "ObjectID": 202, "NAME": "Sondre Stromfjord", "ICAO": "BGSF" }, "geometry": { "type": "Point", "coordinates": [ -50.689327976845007, 67.016964949200172 ] } },
{ "type": "Feature", "properties": { "ObjectID": 203, "NAME": "Narsarsuaq", "ICAO": "BGBW" }, "geometry": { "type": "Point", "coordinates": [ -45.425677976845009, 61.160718949200174 ] } },
{ "type": "Feature", "properties": { "ObjectID": 204, "NAME": "La Grande Riviere", "ICAO": "CYGL" }, "geometry": { "type": "Point", "coordinates": [ -77.704168976845011, 53.625279949200177 ] } },
{ "type": "Feature", "properties": { "ObjectID": 205, "NAME": "Thunder Bay", "ICAO": "CYQT" }, "geometry": { "type": "Point", "coordinates": [ -89.323888976845012, 48.371943949200173 ] } },
{ "type": "Feature", "properties": { "ObjectID": 206, "NAME": "Kapuskasing", "ICAO": "CYYU" }, "geometry": { "type": "Point", "coordinates": [ -82.467499976845005, 49.413891949200178 ] } },
{ "type": "Feature", "properties": { "ObjectID": 207, "NAME": "Timmins", "ICAO": "CYTS" }, "geometry": { "type": "Point", "coordinates": [ -81.376663976845009, 48.56971894920018 ] } },
{ "type": "Feature", "properties": { "ObjectID": 208, "NAME": "Rouyn Noranda", "ICAO": "CYUY" }, "geometry": { "type": "Point", "coordinates": [ -78.835558976845007, 48.206109949200183 ] } },
{ "type": "Feature", "properties": { "ObjectID": 209, "NAME": "Houghton Co Mem", "ICAO": "KCMX" }, "geometry": { "type": "Point", "coordinates": [ -88.489057976845018, 47.168418949200174 ] } },
{ "type": "Feature", "properties": { "ObjectID": 210, "NAME": "Sault Ste Marie", "ICAO": "CYAM" }, "geometry": { "type": "Point", "coordinates": [ -84.509446976845013, 46.485003949200177 ] } },
{ "type": "Feature", "properties": { "ObjectID": 211, "NAME": "Eagle River Union", "ICAO": null }, "geometry": { "type": "Point", "coordinates": [ -89.269069976845017, 45.931800949200181 ] } },
{ "type": "Feature", "properties": { "ObjectID": 212, "NAME": "Sawyer Intl", "ICAO": "KSAW" }, "geometry": { "type": "Point", "coordinates": [ -87.395350976845009, 46.353621949200175 ] } },
{ "type": "Feature", "properties": { "ObjectID": 213, "NAME": "Ford", "ICAO": null }, "geometry": { "type": "Point", "coordinates": [ -88.114540976845007, 45.818355949200182 ] } },
{ "type": "Feature", "properties": { "ObjectID": 214, "NAME": "Rhinelander Oneida Co", "ICAO": "KRHI" }, "geometry": { "type": "Point", "coordinates": [ -89.467474976845011, 45.631191949200172 ] } },
{ "type": "Feature", "properties": { "ObjectID": 215, "NAME": "Merrill Muni", "ICAO": null }, "geometry": { "type": "Point", "coordinates": [ -89.712850976845004, 45.198912949200178 ] } },
{ "type": "Feature", "properties": { "ObjectID": 216, "NAME": "Menominee Marinette Twin Co", "ICAO": null }, "geometry": { "type": "Point", "coordinates": [ -87.638440976845018, 45.126651949200181 ] } },
{ "type": "Feature", "properties": { "ObjectID": 217, "NAME": "Schoolcraft Co", "ICAO": null }, "geometry": { "type": "Point", "coordinates": [ -86.171827976845009, 45.974640949200179 ] } },
{ "type": "Feature", "properties": { "ObjectID": 218, "NAME": "Chippewa Co Intl", "ICAO": "KCIU" }, "geometry": { "type": "Point", "coordinates": [ -84.472384976845007, 46.250751949200179 ] } },
{ "type": "Feature", "properties": { "ObjectID": 219, "NAME": "Mackinac Co", "ICAO": null }, "geometry": { "type": "Point", "coordinates": [ -84.738055976845018, 45.891669949200178 ] } },
{ "type": "Feature", "properties": { "ObjectID": 220, "NAME": "Pellston Rgnl Arpt Of Emmet Co", "ICAO": "KPLN" }, "geometry": { "type": "Point", "coordinates": [ -84.796717976845017, 45.570927949200183 ] } },
{ "type": "Feature", "properties": { "ObjectID": 221, "NAME": "Harbor Springs", "ICAO": null }, "geometry": { "type": "Point", "coordinates": [ -84.913384976845009, 45.425568949200184 ] } },
{ "type": "Feature", "properties": { "ObjectID": 222, "NAME": "Charlevoix Muni", "ICAO": null }, "geometry": { "type": "Point", "coordinates": [ -85.274779976845011, 45.304779949200181 ] } },
{ "type": "Feature", "properties": { "ObjectID": 223, "NAME": "Sudbury", "ICAO": "CYSB" }, "geometry": { "type": "Point", "coordinates": [ -80.798890976845016, 46.624998949200176 ] } },
{ "type": "Feature", "properties": { "ObjectID": 224, "NAME": "Alpena Co Rgnl", "ICAO": "KAPN" }, "geometry": { "type": "Point", "coordinates": [ -83.560288976845015, 45.078069949200184 ] } },
{ "type": "Feature", "properties": { "ObjectID": 225, "NAME": "North Bay", "ICAO": "CYYB" }, "geometry": { "type": "Point", "coordinates": [ -79.422781976845016, 46.363611949200177 ] } },
{ "type": "Feature", "properties": { "ObjectID": 226, "NAME": "Matagami", "ICAO": "CYNM" }, "geometry": { "type": "Point", "coordinates": [ -77.802781976845012, 49.761669949200183 ] } },
{ "type": "Feature", "properties": { "ObjectID": 227, "NAME": "Amos Magny", "ICAO": "CYEY" }, "geometry": { "type": "Point", "coordinates": [ -78.249721976845009, 48.563886949200182 ] } },
{ "type": "Feature", "properties": { "ObjectID": 228, "NAME": "Val D Or", "ICAO": "CYVO" }, "geometry": { "type": "Point", "coordinates": [ -77.782774976845005, 48.053334949200178 ] } },
{ "type": "Feature", "properties": { "ObjectID": 229, "NAME": "Roberval", "ICAO": "CYRJ" }, "geometry": { "type": "Point", "coordinates": [ -72.265558976845014, 48.520002949200176 ] } },
{ "type": "Feature", "properties": { "ObjectID": 230, "NAME": "St Honore", "ICAO": "CYRC" }, "geometry": { "type": "Point", "coordinates": [ -71.050558976845011, 48.520830949200175 ] } },
{ "type": "Feature", "properties": { "ObjectID": 231, "NAME": "Baie Comeau", "ICAO": "CYBC" }, "geometry": { "type": "Point", "coordinates": [ -68.207224976845012, 49.13221894920018 ] } },
{ "type": "Feature", "properties": { "ObjectID": 232, "NAME": "Rimouski", "ICAO": "CYXK" }, "geometry": { "type": "Point", "coordinates": [ -68.496943976845017, 48.478053949200174 ] } },
{ "type": "Feature", "properties": { "ObjectID": 233, "NAME": "Pembroke", "ICAO": "CYTA" }, "geometry": { "type": "Point", "coordinates": [ -77.251666976845016, 45.864444949200177 ] } },
{ "type": "Feature", "properties": { "ObjectID": 234, "NAME": "Carp", "ICAO": "CYRP" }, "geometry": { "type": "Point", "coordinates": [ -76.022221976845017, 45.319170949200185 ] } },
{ "type": "Feature", "properties": { "ObjectID": 235, "NAME": "Ottawa Macdonald Cartier Intl", "ICAO": "CYOW" }, "geometry": { "type": "Point", "coordinates": [ -75.669169976845012, 45.322500949200176 ] } },
{ "type": "Feature", "properties": { "ObjectID": 236, "NAME": "Cornwall Rgnl", "ICAO": "CYCC" }, "geometry": { "type": "Point", "coordinates": [ -74.563330976845009, 45.092775949200174 ] } },
{ "type": "Feature", "properties": { "ObjectID": 237, "NAME": "Montreal Intl Mirabel", "ICAO": "CYMX" }, "geometry": { "type": "Point", "coordinates": [ -74.038666976845008, 45.679503949200182 ] } },
{ "type": "Feature", "properties": { "ObjectID": 238, "NAME": "Pierre Elliott Trudeau Intl", "ICAO": "CYUL" }, "geometry": { "type": "Point", "coordinates": [ -73.749523976845012, 45.459120949200184 ] } },
{ "type": "Feature", "properties": { "ObjectID": 239, "NAME": "St Hubert", "ICAO": "CYHU" }, "geometry": { "type": "Point", "coordinates": [ -73.416946976845011, 45.517503949200176 ] } },
{ "type": "Feature", "properties": { "ObjectID": 240, "NAME": "St Jean", "ICAO": "CYJN" }, "geometry": { "type": "Point", "coordinates": [ -73.281109976845016, 45.294447949200176 ] } },
{ "type": "Feature", "properties": { "ObjectID": 241, "NAME": "Quebec Jean Lesage Intl", "ICAO": "CYQB" }, "geometry": { "type": "Point", "coordinates": [ -71.393332976845016, 46.791111949200172 ] } },
{ "type": "Feature", "properties": { "ObjectID": 242, "NAME": "Trois Rivieres", "ICAO": "CYRQ" }, "geometry": { "type": "Point", "coordinates": [ -72.679441976845013, 46.352775949200179 ] } },
{ "type": "Feature", "properties": { "ObjectID": 243, "NAME": "Drummondville", "ICAO": null }, "geometry": { "type": "Point", "coordinates": [ -72.394717976845016, 45.845274949200174 ] } },
{ "type": "Feature", "properties": { "ObjectID": 244, "NAME": "Sherbrooke", "ICAO": "CYSC" }, "geometry": { "type": "Point", "coordinates": [ -71.690557976845014, 45.438051949200172 ] } },
{ "type": "Feature", "properties": { "ObjectID": 245, "NAME": "Wabush", "ICAO": "CYWK" }, "geometry": { "type": "Point", "coordinates": [ -66.864442976845012, 52.921947949200174 ] } },
{ "type": "Feature", "properties": { "ObjectID": 246, "NAME": "Goose Bay", "ICAO": "CYYR" }, "geometry": { "type": "Point", "coordinates": [ -60.425833976845013, 53.319171949200182 ] } },
{ "type": "Feature", "properties": { "ObjectID": 247, "NAME": "Sept Iles", "ICAO": "CYZV" }, "geometry": { "type": "Point", "coordinates": [ -66.265555976845008, 50.223333949200182 ] } },
{ "type": "Feature", "properties": { "ObjectID": 248, "NAME": "Bonaventure", "ICAO": "CYVB" }, "geometry": { "type": "Point", "coordinates": [ -65.460280976845013, 48.071109949200178 ] } },
{ "type": "Feature", "properties": { "ObjectID": 249, "NAME": "Gaspe", "ICAO": "CYGP" }, "geometry": { "type": "Point", "coordinates": [ -64.478614976845009, 48.775278949200171 ] } },
{ "type": "Feature", "properties": { "ObjectID": 250, "NAME": "Stephenville", "ICAO": "CYJT" }, "geometry": { "type": "Point", "coordinates": [ -58.549999976845015, 48.544167949200173 ] } },
{ "type": "Feature", "properties": { "ObjectID": 251, "NAME": "Deer Lake", "ICAO": "CYDF" }, "geometry": { "type": "Point", "coordinates": [ -57.391384976845004, 49.210833949200179 ] } },
{ "type": "Feature", "properties": { "ObjectID": 252, "NAME": "Miramichi", "ICAO": "CYCH" }, "geometry": { "type": "Point", "coordinates": [ -65.449165976845009, 47.007777949200175 ] } },
{ "type": "Feature", "properties": { "ObjectID": 253, "NAME": "Fredericton", "ICAO": "CYFC" }, "geometry": { "type": "Point", "coordinates": [ -66.537220976845006, 45.868890949200178 ] } },
{ "type": "Feature", "properties": { "ObjectID": 254, "NAME": "Saint John", "ICAO": "CYSJ" }, "geometry": { "type": "Point", "coordinates": [ -65.890273976845009, 45.31611094920018 ] } },
{ "type": "Feature", "properties": { "ObjectID": 255, "NAME": "Greater Moncton Intl", "ICAO": "CYQM" }, "geometry": { "type": "Point", "coordinates": [ -64.678612976845017, 46.112223949200171 ] } },
{ "type": "Feature", "properties": { "ObjectID": 256, "NAME": "Charlottetown", "ICAO": "CYYG" }, "geometry": { "type": "Point", "coordinates": [ -63.121108976845008, 46.290000949200177 ] } },
{ "type": "Feature", "properties": { "ObjectID": 257, "NAME": "Sydney", "ICAO": "CYQY" }, "geometry": { "type": "Point", "coordinates": [ -60.047779976845007, 46.161390949200182 ] } },
{ "type": "Feature", "properties": { "ObjectID": 258, "NAME": "Gander Intl", "ICAO": "CYQX" }, "geometry": { "type": "Point", "coordinates": [ -54.568057976845012, 48.936945949200179 ] } },
{ "type": "Feature", "properties": { "ObjectID": 259, "NAME": "St Johns Intl", "ICAO": "CYYT" }, "geometry": { "type": "Point", "coordinates": [ -52.751947976845017, 47.618607949200182 ] } },
{ "type": "Feature", "properties": { "ObjectID": 260, "NAME": "Keflavik Nas", "ICAO": "BIKF" }, "geometry": { "type": "Point", "coordinates": [ -22.605556976845008, 63.984999949200173 ] } },
{ "type": "Feature", "properties": { "ObjectID": 261, "NAME": "Akureyri", "ICAO": "BIAR" }, "geometry": { "type": "Point", "coordinates": [ -18.072706976845012, 65.659989949200181 ] } },
{ "type": "Feature", "properties": { "ObjectID": 262, "NAME": "Reykjavik", "ICAO": "BIRK" }, "geometry": { "type": "Point", "coordinates": [ -21.940555976845019, 64.129998949200171 ] } },
{ "type": "Feature", "properties": { "ObjectID": 263, "NAME": "Vagar", "ICAO": "EKVG" }, "geometry": { "type": "Point", "coordinates": [ -7.277215976845014, 62.063625949200173 ] } },
{ "type": "Feature", "properties": { "ObjectID": 264, "NAME": "Sumburgh", "ICAO": "EGPB" }, "geometry": { "type": "Point", "coordinates": [ -1.295554976845011, 59.878884949200184 ] } },
{ "type": "Feature", "properties": { "ObjectID": 265, "NAME": "Stornoway", "ICAO": "EGPO" }, "geometry": { "type": "Point", "coordinates": [ -6.331108976845002, 58.215558949200172 ] } },
{ "type": "Feature", "properties": { "ObjectID": 266, "NAME": "Kirkwall", "ICAO": "EGPA" }, "geometry": { "type": "Point", "coordinates": [ -2.90499797684501, 58.957779949200173 ] } },
{ "type": "Feature", "properties": { "ObjectID": 267, "NAME": "Inverness", "ICAO": "EGPE" }, "geometry": { "type": "Point", "coordinates": [ -4.050049976845003, 57.540063949200174 ] } },
{ "type": "Feature", "properties": { "ObjectID": 268, "NAME": "Dundee", "ICAO": "EGPN" }, "geometry": { "type": "Point", "coordinates": [ -3.025831976845012, 56.452494949200172 ] } },
{ "type": "Feature", "properties": { "ObjectID": 269, "NAME": "Dyce", "ICAO": "EGPD" }, "geometry": { "type": "Point", "coordinates": [ -2.197777976845003, 57.201942949200173 ] } },
{ "type": "Feature", "properties": { "ObjectID": 270, "NAME": "Donegal", "ICAO": "EIDL" }, "geometry": { "type": "Point", "coordinates": [ -8.340997976845017, 55.04419294920018 ] } },
{ "type": "Feature", "properties": { "ObjectID": 271, "NAME": "Campbeltown", "ICAO": "EGEC" }, "geometry": { "type": "Point", "coordinates": [ -5.686384976845005, 55.437222949200176 ] } },
{ "type": "Feature", "properties": { "ObjectID": 272, "NAME": "Sligo", "ICAO": "EISG" }, "geometry": { "type": "Point", "coordinates": [ -8.599207976845008, 54.280209949200184 ] } },
{ "type": "Feature", "properties": { "ObjectID": 273, "NAME": "Connaught", "ICAO": "EIKN" }, "geometry": { "type": "Point", "coordinates": [ -8.818492976845022, 53.910300949200177 ] } },
{ "type": "Feature", "properties": { "ObjectID": 274, "NAME": "Aldergrove", "ICAO": "EGAA" }, "geometry": { "type": "Point", "coordinates": [ -6.215836976844997, 54.657498949200175 ] } },
{ "type": "Feature", "properties": { "ObjectID": 275, "NAME": "City", "ICAO": "EGAC" }, "geometry": { "type": "Point", "coordinates": [ -5.872495976845016, 54.618051949200179 ] } },
{ "type": "Feature", "properties": { "ObjectID": 276, "NAME": "Glasgow", "ICAO": "EGPF" }, "geometry": { "type": "Point", "coordinates": [ -4.433053976845002, 55.87194094920018 ] } },
{ "type": "Feature", "properties": { "ObjectID": 277, "NAME": "Edinburgh", "ICAO": "EGPH" }, "geometry": { "type": "Point", "coordinates": [ -3.372502976844999, 55.949997949200181 ] } },
{ "type": "Feature", "properties": { "ObjectID": 278, "NAME": "Prestwick", "ICAO": "EGPK" }, "geometry": { "type": "Point", "coordinates": [ -4.586665976845012, 55.50944794920018 ] } },
{ "type": "Feature", "properties": { "ObjectID": 279, "NAME": "Carlisle", "ICAO": "EGNC" }, "geometry": { "type": "Point", "coordinates": [ -2.809165976845009, 54.937497949200178 ] } },
{ "type": "Feature", "properties": { "ObjectID": 280, "NAME": "Newcastle", "ICAO": "EGNT" }, "geometry": { "type": "Point", "coordinates": [ -1.691662976845009, 55.037496949200175 ] } },
{ "type": "Feature", "properties": { "ObjectID": 281, "NAME": "Isle Of Man", "ICAO": "EGNS" }, "geometry": { "type": "Point", "coordinates": [ -4.623889976845021, 54.083334949200179 ] } },
{ "type": "Feature", "properties": { "ObjectID": 282, "NAME": "Blackpool", "ICAO": "EGNH" }, "geometry": { "type": "Point", "coordinates": [ -3.043714976844996, 53.77629994920018 ] } },
{ "type": "Feature", "properties": { "ObjectID": 283, "NAME": "Warton", "ICAO": "EGNO" }, "geometry": { "type": "Point", "coordinates": [ -2.893513976845014, 53.746986949200178 ] } },
{ "type": "Feature", "properties": { "ObjectID": 284, "NAME": "Teesside", "ICAO": "EGNV" }, "geometry": { "type": "Point", "coordinates": [ -1.429402976845012, 54.509187949200182 ] } },
{ "type": "Feature", "properties": { "ObjectID": 285, "NAME": "Leeds Bradford", "ICAO": "EGNM" }, "geometry": { "type": "Point", "coordinates": [ -1.660567976845016, 53.865894949200182 ] } },
{ "type": "Feature", "properties": { "ObjectID": 286, "NAME": "Humberside", "ICAO": "EGNJ" }, "geometry": { "type": "Point", "coordinates": [ -0.350833976844996, 53.574447949200177 ] } },
{ "type": "Feature", "properties": { "ObjectID": 287, "NAME": "Shannon", "ICAO": "EINN" }, "geometry": { "type": "Point", "coordinates": [ -8.924818976845017, 52.701978949200182 ] } },
{ "type": "Feature", "properties": { "ObjectID": 288, "NAME": "Kerry", "ICAO": "EIKY" }, "geometry": { "type": "Point", "coordinates": [ -9.523786976845003, 52.180878949200178 ] } },
{ "type": "Feature", "properties": { "ObjectID": 289, "NAME": "Dublin", "ICAO": "EIDW" }, "geometry": { "type": "Point", "coordinates": [ -6.270070976845005, 53.421330949200183 ] } },
{ "type": "Feature", "properties": { "ObjectID": 290, "NAME": "Waterford", "ICAO": "EIWF" }, "geometry": { "type": "Point", "coordinates": [ -7.086964976844996, 52.187196949200185 ] } },
{ "type": "Feature", "properties": { "ObjectID": 291, "NAME": "Cork", "ICAO": "EICK" }, "geometry": { "type": "Point", "coordinates": [ -8.491108976844998, 51.841272949200174 ] } },
{ "type": "Feature", "properties": { "ObjectID": 292, "NAME": "Liverpool", "ICAO": "EGGP" }, "geometry": { "type": "Point", "coordinates": [ -2.849719976845023, 53.333607949200172 ] } },
{ "type": "Feature", "properties": { "ObjectID": 293, "NAME": "Hawarden", "ICAO": "EGNR" }, "geometry": { "type": "Point", "coordinates": [ -2.977780976844997, 53.178051949200182 ] } },
{ "type": "Feature", "properties": { "ObjectID": 294, "NAME": "Manchester", "ICAO": "EGCC" }, "geometry": { "type": "Point", "coordinates": [ -2.274952976845015, 53.353740949200173 ] } },
{ "type": "Feature", "properties": { "ObjectID": 295, "NAME": "Manchester Woodford", "ICAO": "EGCD" }, "geometry": { "type": "Point", "coordinates": [ -2.148889976844998, 53.338053949200173 ] } },
{ "type": "Feature", "properties": { "ObjectID": 296, "NAME": "Nottingham East Midlands", "ICAO": "EGNX" }, "geometry": { "type": "Point", "coordinates": [ -1.328053976845013, 52.83111094920018 ] } },
{ "type": "Feature", "properties": { "ObjectID": 297, "NAME": "Wolverhampton", "ICAO": "EGBO" }, "geometry": { "type": "Point", "coordinates": [ -2.259445976845001, 52.517496949200179 ] } },
{ "type": "Feature", "properties": { "ObjectID": 298, "NAME": "Birmingham", "ICAO": "EGBB" }, "geometry": { "type": "Point", "coordinates": [ -1.736473976845019, 52.452993949200177 ] } },
{ "type": "Feature", "properties": { "ObjectID": 299, "NAME": "Coventry", "ICAO": "EGBE" }, "geometry": { "type": "Point", "coordinates": [ -1.479721976845013, 52.369725949200173 ] } },
{ "type": "Feature", "properties": { "ObjectID": 300, "NAME": "Cranfield", "ICAO": "EGTC" }, "geometry": { "type": "Point", "coordinates": [ -0.616666976845011, 52.072221949200184 ] } },
{ "type": "Feature", "properties": { "ObjectID": 301, "NAME": "Swansea", "ICAO": "EGFH" }, "geometry": { "type": "Point", "coordinates": [ -4.067833976845009, 51.605328949200185 ] } },
{ "type": "Feature", "properties": { "ObjectID": 302, "NAME": "Cardiff", "ICAO": "EGFF" }, "geometry": { "type": "Point", "coordinates": [ -3.343333976845003, 51.396663949200175 ] } },
{ "type": "Feature", "properties": { "ObjectID": 303, "NAME": "Exeter", "ICAO": "EGTE" }, "geometry": { "type": "Point", "coordinates": [ -3.413884976844997, 50.734443949200184 ] } },
{ "type": "Feature", "properties": { "ObjectID": 304, "NAME": "Gloucestershire", "ICAO": "EGBJ" }, "geometry": { "type": "Point", "coordinates": [ -2.167222976845011, 51.894165949200172 ] } },
{ "type": "Feature", "properties": { "ObjectID": 305, "NAME": "Bristol Filton", "ICAO": "EGTG" }, "geometry": { "type": "Point", "coordinates": [ -2.590834976845002, 51.519441949200171 ] } },
{ "type": "Feature", "properties": { "ObjectID": 306, "NAME": "Bristol", "ICAO": "EGGD" }, "geometry": { "type": "Point", "coordinates": [ -2.719084976845011, 51.38266894920018 ] } },
{ "type": "Feature", "properties": { "ObjectID": 307, "NAME": "Kidlington", "ICAO": "EGTK" }, "geometry": { "type": "Point", "coordinates": [ -1.316164976845016, 51.83255194920018 ] } },
{ "type": "Feature", "properties": { "ObjectID": 308, "NAME": "Luton", "ICAO": "EGGW" }, "geometry": { "type": "Point", "coordinates": [ -0.368329976845018, 51.874725949200183 ] } },
{ "type": "Feature", "properties": { "ObjectID": 309, "NAME": "Heathrow", "ICAO": "EGLL" }, "geometry": { "type": "Point", "coordinates": [ -0.461389976844998, 51.477501949200175 ] } },
{ "type": "Feature", "properties": { "ObjectID": 310, "NAME": "Bournemouth", "ICAO": "EGHH" }, "geometry": { "type": "Point", "coordinates": [ -1.842502976844997, 50.780001949200184 ] } },
{ "type": "Feature", "properties": { "ObjectID": 311, "NAME": "Farnborough", "ICAO": "EGLF" }, "geometry": { "type": "Point", "coordinates": [ -0.77825297684501, 51.278835949200172 ] } },
{ "type": "Feature", "properties": { "ObjectID": 312, "NAME": "Gatwick", "ICAO": "EGKK" }, "geometry": { "type": "Point", "coordinates": [ -0.19027397684502, 51.148056949200182 ] } },
{ "type": "Feature", "properties": { "ObjectID": 313, "NAME": "Southampton", "ICAO": "EGHI" }, "geometry": { "type": "Point", "coordinates": [ -1.357906976845015, 50.944251949200179 ] } },
{ "type": "Feature", "properties": { "ObjectID": 314, "NAME": "Shoreham", "ICAO": "EGKA" }, "geometry": { "type": "Point", "coordinates": [ -0.297220976845011, 50.835558949200177 ] } },
{ "type": "Feature", "properties": { "ObjectID": 315, "NAME": "Plymouth", "ICAO": "EGHD" }, "geometry": { "type": "Point", "coordinates": [ -4.108846976845001, 50.423070949200181 ] } },
{ "type": "Feature", "properties": { "ObjectID": 316, "NAME": "Guernsey", "ICAO": "EGJB" }, "geometry": { "type": "Point", "coordinates": [ -2.601967976845003, 49.434951949200183 ] } },
{ "type": "Feature", "properties": { "ObjectID": 317, "NAME": "Ploujean", "ICAO": "LFRU" }, "geometry": { "type": "Point", "coordinates": [ -3.815779976845022, 48.60322594920018 ] } },
{ "type": "Feature", "properties": { "ObjectID": 318, "NAME": "Lannion", "ICAO": "LFRO" }, "geometry": { "type": "Point", "coordinates": [ -3.471655976845, 48.754380949200183 ] } },
{ "type": "Feature", "properties": { "ObjectID": 319, "NAME": "Armor", "ICAO": "LFRT" }, "geometry": { "type": "Point", "coordinates": [ -2.854444976845002, 48.537777949200176 ] } },
{ "type": "Feature", "properties": { "ObjectID": 320, "NAME": "Guipavas", "ICAO": "LFRB" }, "geometry": { "type": "Point", "coordinates": [ -4.415818976845003, 48.449883949200185 ] } },
{ "type": "Feature", "properties": { "ObjectID": 321, "NAME": "Pluguffan", "ICAO": "LFRQ" }, "geometry": { "type": "Point", "coordinates": [ -4.167787976845005, 47.974980949200173 ] } },
{ "type": "Feature", "properties": { "ObjectID": 322, "NAME": "Jersey", "ICAO": "EGJJ" }, "geometry": { "type": "Point", "coordinates": [ -2.195509976845017, 49.207944949200183 ] } },
{ "type": "Feature", "properties": { "ObjectID": 323, "NAME": "Pleurtuit", "ICAO": "LFRD" }, "geometry": { "type": "Point", "coordinates": [ -2.080003976845006, 48.587781949200178 ] } },
{ "type": "Feature", "properties": { "ObjectID": 324, "NAME": "St Jacques", "ICAO": "LFRN" }, "geometry": { "type": "Point", "coordinates": [ -1.734790976845005, 48.069507949200172 ] } },
{ "type": "Feature", "properties": { "ObjectID": 325, "NAME": "Montoir", "ICAO": "LFRZ" }, "geometry": { "type": "Point", "coordinates": [ -2.14917797684501, 47.312184949200173 ] } },
{ "type": "Feature", "properties": { "ObjectID": 326, "NAME": "Nantes Atlantique", "ICAO": "LFRS" }, "geometry": { "type": "Point", "coordinates": [ -1.610725976845004, 47.15319094920018 ] } },
{ "type": "Feature", "properties": { "ObjectID": 327, "NAME": "Ile De Re", "ICAO": "LFBH" }, "geometry": { "type": "Point", "coordinates": [ -1.195276976845008, 46.179165949200183 ] } },
{ "type": "Feature", "properties": { "ObjectID": 328, "NAME": "Midway Atoll", "ICAO": "PMDY" }, "geometry": { "type": "Point", "coordinates": [ -177.380635976845014, 28.201728949200174 ] } },
{ "type": "Feature", "properties": { "ObjectID": 329, "NAME": "Newport Muni", "ICAO": null }, "geometry": { "type": "Point", "coordinates": [ -124.057912976845017, 44.580360949200184 ] } },
{ "type": "Feature", "properties": { "ObjectID": 330, "NAME": "North Bend Muni", "ICAO": "KOTH" }, "geometry": { "type": "Point", "coordinates": [ -124.24603097684502, 43.417137949200182 ] } },
{ "type": "Feature", "properties": { "ObjectID": 331, "NAME": "Bandon State", "ICAO": null }, "geometry": { "type": "Point", "coordinates": [ -124.409560976845015, 43.087332949200174 ] } },
{ "type": "Feature", "properties": { "ObjectID": 332, "NAME": "Jack Mc Namara Fld", "ICAO": "KCEC" }, "geometry": { "type": "Point", "coordinates": [ -124.236535976845005, 41.780154949200181 ] } },
{ "type": "Feature", "properties": { "ObjectID": 333, "NAME": "Arcata", "ICAO": "KACV" }, "geometry": { "type": "Point", "coordinates": [ -124.108618976845008, 40.978119949200178 ] } },
{ "type": "Feature", "properties": { "ObjectID": 334, "NAME": "Rohnerville", "ICAO": null }, "geometry": { "type": "Point", "coordinates": [ -124.13265797684501, 40.553931949200177 ] } },
{ "type": "Feature", "properties": { "ObjectID": 335, "NAME": "Independence State", "ICAO": null }, "geometry": { "type": "Point", "coordinates": [ -123.198250976845003, 44.866767949200181 ] } },
{ "type": "Feature", "properties": { "ObjectID": 336, "NAME": "Mcnary Fld", "ICAO": "KSLE" }, "geometry": { "type": "Point", "coordinates": [ -123.002500976845013, 44.909526949200185 ] } },
{ "type": "Feature", "properties": { "ObjectID": 337, "NAME": "Albany Muni", "ICAO": null }, "geometry": { "type": "Point", "coordinates": [ -123.059443976845017, 44.63780794920018 ] } },
{ "type": "Feature", "properties": { "ObjectID": 338, "NAME": "Corvallis Muni", "ICAO": "KCVO" }, "geometry": { "type": "Point", "coordinates": [ -123.289834976845015, 44.497191949200172 ] } },
{ "type": "Feature", "properties": { "ObjectID": 339, "NAME": "City Co", "ICAO": null }, "geometry": { "type": "Point", "coordinates": [ -121.163098976845021, 44.666229949200172 ] } },
{ "type": "Feature", "properties": { "ObjectID": 340, "NAME": "Mahlon Sweet Fld", "ICAO": "KEUG" }, "geometry": { "type": "Point", "coordinates": [ -123.218689976845013, 44.123259949200175 ] } },
{ "type": "Feature", "properties": { "ObjectID": 341, "NAME": "Hobby Fld", "ICAO": null }, "geometry": { "type": "Point", "coordinates": [ -123.006748976845017, 43.932072949200176 ] } },
{ "type": "Feature", "properties": { "ObjectID": 342, "NAME": "Roberts Fld", "ICAO": "KRDM" }, "geometry": { "type": "Point", "coordinates": [ -121.149967976845005, 44.254065949200182 ] } },
{ "type": "Feature", "properties": { "ObjectID": 343, "NAME": "Bend Muni", "ICAO": null }, "geometry": { "type": "Point", "coordinates": [ -121.200637976845002, 44.094828949200178 ] } },
{ "type": "Feature", "properties": { "ObjectID": 344, "NAME": "Sunriver", "ICAO": null }, "geometry": { "type": "Point", "coordinates": [ -121.453051976845018, 43.876335949200183 ] } },
{ "type": "Feature", "properties": { "ObjectID": 345, "NAME": "Grant Co Rgnl Ogilvie Fld", "ICAO": null }, "geometry": { "type": "Point", "coordinates": [ -118.96249997684501, 44.404167949200172 ] } },
{ "type": "Feature", "properties": { "ObjectID": 346, "NAME": "Prineville", "ICAO": null }, "geometry": { "type": "Point", "coordinates": [ -120.903835976845016, 44.286996949200173 ] } },
{ "type": "Feature", "properties": { "ObjectID": 347, "NAME": "Roseburg Rgnl", "ICAO": null }, "geometry": { "type": "Point", "coordinates": [ -123.355858976845013, 43.238784949200181 ] } },
{ "type": "Feature", "properties": { "ObjectID": 348, "NAME": "Grants Pass", "ICAO": null }, "geometry": { "type": "Point", "coordinates": [ -123.387988976845008, 42.510117949200179 ] } },
{ "type": "Feature", "properties": { "ObjectID": 349, "NAME": "Rogue Valley Intl Medford", "ICAO": "KMFR" }, "geometry": { "type": "Point", "coordinates": [ -122.873494976845009, 42.374226949200178 ] } },
{ "type": "Feature", "properties": { "ObjectID": 350, "NAME": "Ashland Muni Sumner Parker Fld", "ICAO": null }, "geometry": { "type": "Point", "coordinates": [ -122.660626976845009, 42.190284949200176 ] } },
{ "type": "Feature", "properties": { "ObjectID": 351, "NAME": "Burns Muni", "ICAO": null }, "geometry": { "type": "Point", "coordinates": [ -118.955434976845012, 43.591908949200175 ] } },
{ "type": "Feature", "properties": { "ObjectID": 352, "NAME": "Paisley", "ICAO": null }, "geometry": { "type": "Point", "coordinates": [ -120.562753976845016, 42.717927949200174 ] } },
{ "type": "Feature", "properties": { "ObjectID": 353, "NAME": "Baker City Muni", "ICAO": "KBKE" }, "geometry": { "type": "Point", "coordinates": [ -117.809086976845009, 44.837328949200185 ] } },
{ "type": "Feature", "properties": { "ObjectID": 354, "NAME": "Mc Call Muni", "ICAO": null }, "geometry": { "type": "Point", "coordinates": [ -116.101291976845005, 44.889699949200178 ] } },
{ "type": "Feature", "properties": { "ObjectID": 355, "NAME": "Ontario Muni", "ICAO": null }, "geometry": { "type": "Point", "coordinates": [ -117.013639976845013, 44.02052494920018 ] } },
{ "type": "Feature", "properties": { "ObjectID": 356, "NAME": "Emmett Muni", "ICAO": null }, "geometry": { "type": "Point", "coordinates": [ -116.542633976845011, 43.849884949200174 ] } },
{ "type": "Feature", "properties": { "ObjectID": 357, "NAME": "Caldwell Industrial", "ICAO": null }, "geometry": { "type": "Point", "coordinates": [ -116.635774976845013, 43.641858949200184 ] } },
{ "type": "Feature", "properties": { "ObjectID": 358, "NAME": "Challis", "ICAO": null }, "geometry": { "type": "Point", "coordinates": [ -114.217564976845011, 44.522976949200185 ] } },
{ "type": "Feature", "properties": { "ObjectID": 359, "NAME": "Nampa Muni", "ICAO": null }, "geometry": { "type": "Point", "coordinates": [ -116.523058976845022, 43.581333949200172 ] } },
{ "type": "Feature", "properties": { "ObjectID": 360, "NAME": "Boise Air Terminal", "ICAO": "KBOI" }, "geometry": { "type": "Point", "coordinates": [ -116.222863976845019, 43.564359949200181 ] } },
{ "type": "Feature", "properties": { "ObjectID": 361, "NAME": "Mountain Home Muni", "ICAO": null }, "geometry": { "type": "Point", "coordinates": [ -115.729591976845015, 43.131252949200174 ] } },
{ "type": "Feature", "properties": { "ObjectID": 362, "NAME": "Friedman Mem", "ICAO": null }, "geometry": { "type": "Point", "coordinates": [ -114.295828976845002, 43.504059949200183 ] } },
{ "type": "Feature", "properties": { "ObjectID": 363, "NAME": "Gooding Muni", "ICAO": null }, "geometry": { "type": "Point", "coordinates": [ -114.76516097684501, 42.917169949200172 ] } },
{ "type": "Feature", "properties": { "ObjectID": 364, "NAME": "Pocatello Rgnl", "ICAO": "KPIH" }, "geometry": { "type": "Point", "coordinates": [ -112.595917976845016, 42.909780949200183 ] } },
{ "type": "Feature", "properties": { "ObjectID": 365, "NAME": "Buhl Muni", "ICAO": null }, "geometry": { "type": "Point", "coordinates": [ -114.79671497684501, 42.591567949200183 ] } },
{ "type": "Feature", "properties": { "ObjectID": 366, "NAME": "Jerome Co", "ICAO": null }, "geometry": { "type": "Point", "coordinates": [ -114.456640976845009, 42.726684949200177 ] } },
{ "type": "Feature", "properties": { "ObjectID": 367, "NAME": "Joslin Fld Magic Valley Rgnl", "ICAO": "KTWF" }, "geometry": { "type": "Point", "coordinates": [ -114.487735976845016, 42.481803949200184 ] } },
{ "type": "Feature", "properties": { "ObjectID": 368, "NAME": "Burley Muni", "ICAO": "KBYI" }, "geometry": { "type": "Point", "coordinates": [ -113.771542976845012, 42.542598949200183 ] } },
{ "type": "Feature", "properties": { "ObjectID": 369, "NAME": "Siskiyou Co", "ICAO": null }, "geometry": { "type": "Point", "coordinates": [ -122.468107976845005, 41.781441949200172 ] } },
{ "type": "Feature", "properties": { "ObjectID": 370, "NAME": "Klamath Falls", "ICAO": "KLMT" }, "geometry": { "type": "Point", "coordinates": [ -121.733203976845004, 42.156147949200175 ] } },
{ "type": "Feature", "properties": { "ObjectID": 371, "NAME": "Alturas Muni", "ICAO": null }, "geometry": { "type": "Point", "coordinates": [ -120.56536397684502, 41.483001949200172 ] } },
{ "type": "Feature", "properties": { "ObjectID": 372, "NAME": "Lonnie Pool Fld Weaverville", "ICAO": null }, "geometry": { "type": "Point", "coordinates": [ -122.921968976845022, 40.745703949200177 ] } },
{ "type": "Feature", "properties": { "ObjectID": 373, "NAME": "Redding Muni", "ICAO": "KRDD" }, "geometry": { "type": "Point", "coordinates": [ -122.293399976845009, 40.508985949200181 ] } },
{ "type": "Feature", "properties": { "ObjectID": 374, "NAME": "Red Bluff Muni", "ICAO": "KRBL" }, "geometry": { "type": "Point", "coordinates": [ -122.252287976845011, 40.150659949200175 ] } },
{ "type": "Feature", "properties": { "ObjectID": 375, "NAME": "Chico Muni", "ICAO": null }, "geometry": { "type": "Point", "coordinates": [ -121.858420976845011, 39.795384949200184 ] } },
{ "type": "Feature", "properties": { "ObjectID": 376, "NAME": "Haigh Fld", "ICAO": null }, "geometry": { "type": "Point", "coordinates": [ -122.146645976845008, 39.721242949200175 ] } },
{ "type": "Feature", "properties": { "ObjectID": 377, "NAME": "Willows Glenn Co", "ICAO": null }, "geometry": { "type": "Point", "coordinates": [ -122.217511976845003, 39.516357949200184 ] } },
{ "type": "Feature", "properties": { "ObjectID": 378, "NAME": "Susanville Muni", "ICAO": null }, "geometry": { "type": "Point", "coordinates": [ -120.572689976845012, 40.375695949200178 ] } },
{ "type": "Feature", "properties": { "ObjectID": 379, "NAME": "Reno Stead", "ICAO": null }, "geometry": { "type": "Point", "coordinates": [ -119.87619797684502, 39.667359949200176 ] } },
{ "type": "Feature", "properties": { "ObjectID": 380, "NAME": "Reno Tahoe Intl", "ICAO": "KRNO" }, "geometry": { "type": "Point", "coordinates": [ -119.768107976845016, 39.499104949200174 ] } },
{ "type": "Feature", "properties": { "ObjectID": 381, "NAME": "Fallon Muni", "ICAO": null }, "geometry": { "type": "Point", "coordinates": [ -118.748749976845005, 39.499086949200176 ] } },
{ "type": "Feature", "properties": { "ObjectID": 382, "NAME": "Winnemucca Muni", "ICAO": null }, "geometry": { "type": "Point", "coordinates": [ -117.805891976845004, 40.896606949200176 ] } },
{ "type": "Feature", "properties": { "ObjectID": 383, "NAME": "Elko Rgnl", "ICAO": "KEKO" }, "geometry": { "type": "Point", "coordinates": [ -115.791691976845016, 40.824912949200183 ] } },
{ "type": "Feature", "properties": { "ObjectID": 384, "NAME": "Wendover", "ICAO": null }, "geometry": { "type": "Point", "coordinates": [ -114.030886976845011, 40.718694949200184 ] } },
{ "type": "Feature", "properties": { "ObjectID": 385, "NAME": "Ukiah Muni", "ICAO": "KUKI" }, "geometry": { "type": "Point", "coordinates": [ -123.200851976845016, 39.125955949200176 ] } },
{ "type": "Feature", "properties": { "ObjectID": 386, "NAME": "Nevada Co Air Park", "ICAO": null }, "geometry": { "type": "Point", "coordinates": [ -121.003078976845018, 39.224028949200175 ] } },
{ "type": "Feature", "properties": { "ObjectID": 387, "NAME": "Sutter Co", "ICAO": null }, "geometry": { "type": "Point", "coordinates": [ -121.605358976845011, 39.123669949200178 ] } },
{ "type": "Feature", "properties": { "ObjectID": 388, "NAME": "Yuba Co", "ICAO": "KMYV" }, "geometry": { "type": "Point", "coordinates": [ -121.569826976845007, 39.097767949200176 ] } },
{ "type": "Feature", "properties": { "ObjectID": 389, "NAME": "Lincoln Rgnl Karl Harder Fld", "ICAO": null }, "geometry": { "type": "Point", "coordinates": [ -121.351333976845012, 38.909163949200178 ] } },
{ "type": "Feature", "properties": { "ObjectID": 390, "NAME": "Sacramento Intl", "ICAO": "KSMF" }, "geometry": { "type": "Point", "coordinates": [ -121.590778976845002, 38.695413949200173 ] } },
{ "type": "Feature", "properties": { "ObjectID": 391, "NAME": "Charles M Schulz Sonoma Co", "ICAO": null }, "geometry": { "type": "Point", "coordinates": [ -122.812879976845011, 38.508978949200184 ] } },
{ "type": "Feature", "properties": { "ObjectID": 392, "NAME": "Gnoss Fld", "ICAO": null }, "geometry": { "type": "Point", "coordinates": [ -122.556100976845016, 38.143614949200185 ] } },
{ "type": "Feature", "properties": { "ObjectID": 393, "NAME": "Mc Clellan Afld", "ICAO": "KMCC" }, "geometry": { "type": "Point", "coordinates": [ -121.400608976845007, 38.667639949200179 ] } },
{ "type": "Feature", "properties": { "ObjectID": 394, "NAME": "Sacramento Executive", "ICAO": "KSAC" }, "geometry": { "type": "Point", "coordinates": [ -121.493470976845003, 38.512524949200184 ] } },
{ "type": "Feature", "properties": { "ObjectID": 395, "NAME": "Napa Co", "ICAO": null }, "geometry": { "type": "Point", "coordinates": [ -122.28069197684502, 38.213193949200175 ] } },
{ "type": "Feature", "properties": { "ObjectID": 396, "NAME": "Buchanan Fld", "ICAO": null }, "geometry": { "type": "Point", "coordinates": [ -122.056888976845016, 37.989669949200177 ] } },
{ "type": "Feature", "properties": { "ObjectID": 397, "NAME": "Truckee Tahoe", "ICAO": null }, "geometry": { "type": "Point", "coordinates": [ -120.139564976845008, 39.320040949200177 ] } },
{ "type": "Feature", "properties": { "ObjectID": 398, "NAME": "Placerville", "ICAO": null }, "geometry": { "type": "Point", "coordinates": [ -120.753328976845012, 38.724222949200183 ] } },
{ "type": "Feature", "properties": { "ObjectID": 399, "NAME": "Lake Tahoe", "ICAO": "KTVL" }, "geometry": { "type": "Point", "coordinates": [ -119.995339976845003, 38.893881949200178 ] } },
{ "type": "Feature", "properties": { "ObjectID": 400, "NAME": "San Francisco Intl", "ICAO": "KSFO" }, "geometry": { "type": "Point", "coordinates": [ -122.374885976845007, 37.61896894920018 ] } },
{ "type": "Feature", "properties": { "ObjectID": 401, "NAME": "Half Moon Bay", "ICAO": null }, "geometry": { "type": "Point", "coordinates": [ -122.501092976845015, 37.513830949200184 ] } },
{ "type": "Feature", "properties": { "ObjectID": 402, "NAME": "Metropolitan Oakland Intl", "ICAO": "KOAK" }, "geometry": { "type": "Point", "coordinates": [ -122.220715976845014, 37.721289949200184 ] } },
{ "type": "Feature", "properties": { "ObjectID": 403, "NAME": "Hayward Executive", "ICAO": null }, "geometry": { "type": "Point", "coordinates": [ -122.122417976845014, 37.659279949200183 ] } },
{ "type": "Feature", "properties": { "ObjectID": 404, "NAME": "Livermore Muni", "ICAO": null }, "geometry": { "type": "Point", "coordinates": [ -121.820359976845012, 37.693389949200181 ] } },
{ "type": "Feature", "properties": { "ObjectID": 405, "NAME": "Stockton Metropolitan", "ICAO": "KSCK" }, "geometry": { "type": "Point", "coordinates": [ -121.238311976845011, 37.894152949200176 ] } },
{ "type": "Feature", "properties": { "ObjectID": 406, "NAME": "Tracy Muni", "ICAO": null }, "geometry": { "type": "Point", "coordinates": [ -121.441819976845011, 37.689105949200183 ] } },
{ "type": "Feature", "properties": { "ObjectID": 407, "NAME": "Modesto City Co Harry Sham", "ICAO": "KMOD" }, "geometry": { "type": "Point", "coordinates": [ -120.954424976845019, 37.625817949200183 ] } },
{ "type": "Feature", "properties": { "ObjectID": 408, "NAME": "San Carlos", "ICAO": null }, "geometry": { "type": "Point", "coordinates": [ -122.249524976845009, 37.511859949200172 ] } },
{ "type": "Feature", "properties": { "ObjectID": 409, "NAME": "Palo Alto Arpt Of Santa Clara Co", "ICAO": null }, "geometry": { "type": "Point", "coordinates": [ -122.115055976845014, 37.461108949200181 ] } },
{ "type": "Feature", "properties": { "ObjectID": 410, "NAME": "Norman Y Mineta San Jose Intl", "ICAO": "KSJC" }, "geometry": { "type": "Point", "coordinates": [ -121.929007976845014, 37.362621949200175 ] } },
{ "type": "Feature", "properties": { "ObjectID": 411, "NAME": "Reid Hillview Of Santa Clara Co", "ICAO": null }, "geometry": { "type": "Point", "coordinates": [ -121.818730976845018, 37.332930949200176 ] } },
{ "type": "Feature", "properties": { "ObjectID": 412, "NAME": "Monterey Peninsula", "ICAO": "KMRY" }, "geometry": { "type": "Point", "coordinates": [ -121.842940976845014, 36.587001949200172 ] } },
{ "type": "Feature", "properties": { "ObjectID": 413, "NAME": "Hollister Muni", "ICAO": null }, "geometry": { "type": "Point", "coordinates": [ -121.410265976845011, 36.893343949200172 ] } },
{ "type": "Feature", "properties": { "ObjectID": 414, "NAME": "Salinas Muni", "ICAO": "KSNS" }, "geometry": { "type": "Point", "coordinates": [ -121.606357976845004, 36.662790949200172 ] } },
{ "type": "Feature", "properties": { "ObjectID": 415, "NAME": "Eastern Sierra Rgnl", "ICAO": null }, "geometry": { "type": "Point", "coordinates": [ -118.363603976845013, 37.373097949200172 ] } },
{ "type": "Feature", "properties": { "ObjectID": 416, "NAME": "Los Banos Muni", "ICAO": null }, "geometry": { "type": "Point", "coordinates": [ -120.869248976845014, 37.062903949200177 ] } },
{ "type": "Feature", "properties": { "ObjectID": 417, "NAME": "Madera Muni", "ICAO": null }, "geometry": { "type": "Point", "coordinates": [ -120.112627976845005, 36.986502949200172 ] } },
{ "type": "Feature", "properties": { "ObjectID": 418, "NAME": "Fresno Yosemite Intl", "ICAO": "KFAT" }, "geometry": { "type": "Point", "coordinates": [ -119.718139976845009, 36.776190949200185 ] } },
{ "type": "Feature", "properties": { "ObjectID": 419, "NAME": "Fresno Chandler Executive", "ICAO": null }, "geometry": { "type": "Point", "coordinates": [ -119.819893976845009, 36.732360949200171 ] } },
{ "type": "Feature", "properties": { "ObjectID": 420, "NAME": "Cedar City Rgnl", "ICAO": "KCDC" }, "geometry": { "type": "Point", "coordinates": [ -113.09884697684501, 37.700967949200177 ] } },
{ "type": "Feature", "properties": { "ObjectID": 421, "NAME": "St George Muni", "ICAO": null }, "geometry": { "type": "Point", "coordinates": [ -113.593054976845011, 37.090578949200179 ] } },
{ "type": "Feature", "properties": { "ObjectID": 422, "NAME": "Hanford Muni", "ICAO": null }, "geometry": { "type": "Point", "coordinates": [ -119.627635976845013, 36.316722949200184 ] } },
{ "type": "Feature", "properties": { "ObjectID": 423, "NAME": "Visalia Muni", "ICAO": null }, "geometry": { "type": "Point", "coordinates": [ -119.392888976845015, 36.318666949200178 ] } },
{ "type": "Feature", "properties": { "ObjectID": 424, "NAME": "Mefford Fld", "ICAO": null }, "geometry": { "type": "Point", "coordinates": [ -119.326162976845012, 36.156306949200172 ] } },
{ "type": "Feature", "properties": { "ObjectID": 425, "NAME": "Porterville Muni", "ICAO": null }, "geometry": { "type": "Point", "coordinates": [ -119.062732976845012, 36.029604949200177 ] } },
{ "type": "Feature", "properties": { "ObjectID": 426, "NAME": "Paso Robles Muni", "ICAO": "KPRB" }, "geometry": { "type": "Point", "coordinates": [ -120.627049976845015, 35.672889949200183 ] } },
{ "type": "Feature", "properties": { "ObjectID": 427, "NAME": "San Luis Co Rgnl", "ICAO": "KSBP" }, "geometry": { "type": "Point", "coordinates": [ -120.641863976845002, 35.236830949200183 ] } },
{ "type": "Feature", "properties": { "ObjectID": 428, "NAME": "Delano Muni", "ICAO": null }, "geometry": { "type": "Point", "coordinates": [ -119.236504976845012, 35.745582949200184 ] } },
{ "type": "Feature", "properties": { "ObjectID": 429, "NAME": "Meadows Fld", "ICAO": "KBFL" }, "geometry": { "type": "Point", "coordinates": [ -119.056765976845014, 35.433597949200177 ] } },
{ "type": "Feature", "properties": { "ObjectID": 430, "NAME": "Bakersfield Muni", "ICAO": null }, "geometry": { "type": "Point", "coordinates": [ -118.995835976845015, 35.324832949200172 ] } },
{ "type": "Feature", "properties": { "ObjectID": 431, "NAME": "Santa Maria Pub Cpt G Allan Hancock", "ICAO": "KSMX" }, "geometry": { "type": "Point", "coordinates": [ -120.457444976845011, 34.898916949200171 ] } },
{ "type": "Feature", "properties": { "ObjectID": 432, "NAME": "Santa Ynez", "ICAO": null }, "geometry": { "type": "Point", "coordinates": [ -120.075556976845007, 34.606821949200182 ] } },
{ "type": "Feature", "properties": { "ObjectID": 433, "NAME": "Mojave", "ICAO": null }, "geometry": { "type": "Point", "coordinates": [ -118.151851976845009, 35.059359949200172 ] } },
{ "type": "Feature", "properties": { "ObjectID": 434, "NAME": "General Wm J Fox Afld", "ICAO": null }, "geometry": { "type": "Point", "coordinates": [ -118.218631976845018, 34.74104794920018 ] } },
{ "type": "Feature", "properties": { "ObjectID": 435, "NAME": "Santa Barbara Muni", "ICAO": "KSBA" }, "geometry": { "type": "Point", "coordinates": [ -119.840368976845014, 34.426209949200171 ] } },
{ "type": "Feature", "properties": { "ObjectID": 436, "NAME": "Oxnard", "ICAO": null }, "geometry": { "type": "Point", "coordinates": [ -119.207209976845007, 34.200804949200176 ] } },
{ "type": "Feature", "properties": { "ObjectID": 437, "NAME": "Camarillo", "ICAO": null }, "geometry": { "type": "Point", "coordinates": [ -119.094331976845012, 34.213755949200177 ] } },
{ "type": "Feature", "properties": { "ObjectID": 438, "NAME": "Van Nuys", "ICAO": null }, "geometry": { "type": "Point", "coordinates": [ -118.48997297684501, 34.209813949200182 ] } },
{ "type": "Feature", "properties": { "ObjectID": 439, "NAME": "Bob Hope", "ICAO": "KBUR" }, "geometry": { "type": "Point", "coordinates": [ -118.358662976845011, 34.200669949200176 ] } },
{ "type": "Feature", "properties": { "ObjectID": 440, "NAME": "Santa Monica Muni", "ICAO": null }, "geometry": { "type": "Point", "coordinates": [ -118.451299976845007, 34.015818949200181 ] } },
{ "type": "Feature", "properties": { "ObjectID": 441, "NAME": "Los Angeles Intl", "ICAO": "KLAX" }, "geometry": { "type": "Point", "coordinates": [ -118.408072976845006, 33.942531949200173 ] } },
{ "type": "Feature", "properties": { "ObjectID": 442, "NAME": "Jack Northrop Fld Hawthorne Muni", "ICAO": "KHHR" }, "geometry": { "type": "Point", "coordinates": [ -118.335181976845007, 33.922839949200181 ] } },
{ "type": "Feature", "properties": { "ObjectID": 443, "NAME": "Zamperini Fld", "ICAO": null }, "geometry": { "type": "Point", "coordinates": [ -118.339609976845011, 33.803391949200176 ] } },
{ "type": "Feature", "properties": { "ObjectID": 444, "NAME": "Long Beach", "ICAO": "KLGB" }, "geometry": { "type": "Point", "coordinates": [ -118.151608976845012, 33.817719949200182 ] } },
{ "type": "Feature", "properties": { "ObjectID": 445, "NAME": "North Las Vegas", "ICAO": null }, "geometry": { "type": "Point", "coordinates": [ -115.196107976845013, 36.212502949200172 ] } },
{ "type": "Feature", "properties": { "ObjectID": 446, "NAME": "Mc Carran Intl", "ICAO": "KLAS" }, "geometry": { "type": "Point", "coordinates": [ -115.152331976845005, 36.080364949200174 ] } },
{ "type": "Feature", "properties": { "ObjectID": 447, "NAME": "Henderson Executive", "ICAO": null }, "geometry": { "type": "Point", "coordinates": [ -115.134439976845016, 35.972778949200176 ] } },
{ "type": "Feature", "properties": { "ObjectID": 448, "NAME": "Laughlin Bullhead Intl", "ICAO": null }, "geometry": { "type": "Point", "coordinates": [ -114.559528976845002, 35.157387949200171 ] } },
{ "type": "Feature", "properties": { "ObjectID": 449, "NAME": "Kingman", "ICAO": null }, "geometry": { "type": "Point", "coordinates": [ -113.938051976845003, 35.259474949200182 ] } },
{ "type": "Feature", "properties": { "ObjectID": 450, "NAME": "Palmdale Prod Flt Test Instl Af Plt 42", "ICAO": "KPMD" }, "geometry": { "type": "Point", "coordinates": [ -118.084558976845017, 34.629393949200178 ] } },
{ "type": "Feature", "properties": { "ObjectID": 451, "NAME": "Southern California Logistics", "ICAO": null }, "geometry": { "type": "Point", "coordinates": [ -117.382999976845014, 34.597452949200175 ] } },
{ "type": "Feature", "properties": { "ObjectID": 452, "NAME": "El Monte", "ICAO": null }, "geometry": { "type": "Point", "coordinates": [ -118.034716976845004, 34.086108949200181 ] } },
{ "type": "Feature", "properties": { "ObjectID": 453, "NAME": "Brackett Fld", "ICAO": null }, "geometry": { "type": "Point", "coordinates": [ -117.781780976845013, 34.091643949200176 ] } },
{ "type": "Feature", "properties": { "ObjectID": 454, "NAME": "Ontario Intl", "ICAO": "KONT" }, "geometry": { "type": "Point", "coordinates": [ -117.60119597684502, 34.056003949200175 ] } },
{ "type": "Feature", "properties": { "ObjectID": 455, "NAME": "Chino", "ICAO": null }, "geometry": { "type": "Point", "coordinates": [ -117.63661097684502, 33.974697949200177 ] } },
{ "type": "Feature", "properties": { "ObjectID": 456, "NAME": "Riverside Muni", "ICAO": "KRAL" }, "geometry": { "type": "Point", "coordinates": [ -117.445099976845015, 33.951873949200177 ] } },
{ "type": "Feature", "properties": { "ObjectID": 457, "NAME": "Fullerton Muni", "ICAO": null }, "geometry": { "type": "Point", "coordinates": [ -117.979780976845007, 33.872016949200173 ] } },
{ "type": "Feature", "properties": { "ObjectID": 458, "NAME": "Flabob", "ICAO": null }, "geometry": { "type": "Point", "coordinates": [ -117.410602976845013, 33.989736949200179 ] } },
{ "type": "Feature", "properties": { "ObjectID": 459, "NAME": "Twentynine Palms", "ICAO": null }, "geometry": { "type": "Point", "coordinates": [ -115.94583497684502, 34.131585949200172 ] } },
{ "type": "Feature", "properties": { "ObjectID": 460, "NAME": "Palm Springs Intl", "ICAO": "KPSP" }, "geometry": { "type": "Point", "coordinates": [ -116.506696976845006, 33.829662949200184 ] } },
{ "type": "Feature", "properties": { "ObjectID": 461, "NAME": "Rexburg Madison Co", "ICAO": null }, "geometry": { "type": "Point", "coordinates": [ -111.805105976845013, 43.833909949200176 ] } },
{ "type": "Feature", "properties": { "ObjectID": 462, "NAME": "Rigby Jefferson Co", "ICAO": null }, "geometry": { "type": "Point", "coordinates": [ -111.928576976845008, 43.644351949200171 ] } },
{ "type": "Feature", "properties": { "ObjectID": 463, "NAME": "Driggs Reed Mem", "ICAO": null }, "geometry": { "type": "Point", "coordinates": [ -111.097858976845018, 43.741929949200184 ] } },
{ "type": "Feature", "properties": { "ObjectID": 464, "NAME": "Jackson Hole", "ICAO": "KJAC" }, "geometry": { "type": "Point", "coordinates": [ -110.737750976845007, 43.60733494920018 ] } },
{ "type": "Feature", "properties": { "ObjectID": 465, "NAME": "Sheridan Co", "ICAO": "KSHR" }, "geometry": { "type": "Point", "coordinates": [ -106.980277976845016, 44.769189949200182 ] } },
{ "type": "Feature", "properties": { "ObjectID": 466, "NAME": "Idaho Falls Rgnl", "ICAO": "KIDA" }, "geometry": { "type": "Point", "coordinates": [ -112.070164976845007, 43.514553949200177 ] } },
{ "type": "Feature", "properties": { "ObjectID": 467, "NAME": "Mccarley Fld", "ICAO": null }, "geometry": { "type": "Point", "coordinates": [ -112.349587976845015, 43.209246949200178 ] } },
{ "type": "Feature", "properties": { "ObjectID": 468, "NAME": "Hunt Fld", "ICAO": null }, "geometry": { "type": "Point", "coordinates": [ -108.729841976845009, 42.815235949200172 ] } },
{ "type": "Feature", "properties": { "ObjectID": 469, "NAME": "Johnson Co", "ICAO": null }, "geometry": { "type": "Point", "coordinates": [ -106.721788976845005, 44.381082949200177 ] } },
{ "type": "Feature", "properties": { "ObjectID": 470, "NAME": "Gillette Campbell Co", "ICAO": null }, "geometry": { "type": "Point", "coordinates": [ -105.539359976845006, 44.348916949200174 ] } },
{ "type": "Feature", "properties": { "ObjectID": 471, "NAME": "Black Hills Clyde Ice Fld", "ICAO": null }, "geometry": { "type": "Point", "coordinates": [ -103.782955976845017, 44.480325949200179 ] } },
{ "type": "Feature", "properties": { "ObjectID": 472, "NAME": "Rapid City Rgnl", "ICAO": "KRAP" }, "geometry": { "type": "Point", "coordinates": [ -103.057357976845012, 44.045328949200183 ] } },
{ "type": "Feature", "properties": { "ObjectID": 473, "NAME": "Philip", "ICAO": null }, "geometry": { "type": "Point", "coordinates": [ -101.59906097684501, 44.048631949200171 ] } },
{ "type": "Feature", "properties": { "ObjectID": 474, "NAME": "Natrona Co Intl", "ICAO": "KCPR" }, "geometry": { "type": "Point", "coordinates": [ -106.464406976845012, 42.907971949200174 ] } },
{ "type": "Feature", "properties": { "ObjectID": 475, "NAME": "Converse Co", "ICAO": null }, "geometry": { "type": "Point", "coordinates": [ -105.385828976845005, 42.797172949200174 ] } },
{ "type": "Feature", "properties": { "ObjectID": 476, "NAME": "Camp Guernsey", "ICAO": null }, "geometry": { "type": "Point", "coordinates": [ -104.728288976845008, 42.259611949200178 ] } },
{ "type": "Feature", "properties": { "ObjectID": 477, "NAME": "Hot Springs Muni", "ICAO": null }, "geometry": { "type": "Point", "coordinates": [ -103.388143976845015, 43.368240949200171 ] } },
{ "type": "Feature", "properties": { "ObjectID": 478, "NAME": "Chadron Muni", "ICAO": null }, "geometry": { "type": "Point", "coordinates": [ -103.095418976845011, 42.83755594920018 ] } },
{ "type": "Feature", "properties": { "ObjectID": 479, "NAME": "Preston", "ICAO": null }, "geometry": { "type": "Point", "coordinates": [ -111.912538976845013, 42.106908949200175 ] } },
{ "type": "Feature", "properties": { "ObjectID": 480, "NAME": "Brigham City", "ICAO": null }, "geometry": { "type": "Point", "coordinates": [ -112.062217976845005, 41.552391949200171 ] } },
{ "type": "Feature", "properties": { "ObjectID": 481, "NAME": "Ogden Hinckley", "ICAO": "KOGD" }, "geometry": { "type": "Point", "coordinates": [ -112.012168976845018, 41.195919949200174 ] } },
{ "type": "Feature", "properties": { "ObjectID": 482, "NAME": "Salt Lake City Intl", "ICAO": "KSLC" }, "geometry": { "type": "Point", "coordinates": [ -111.977770976845008, 40.788390949200178 ] } },
{ "type": "Feature", "properties": { "ObjectID": 483, "NAME": "Salt Lake City Muni 2", "ICAO": null }, "geometry": { "type": "Point", "coordinates": [ -111.992881976845013, 40.619541949200183 ] } },
{ "type": "Feature", "properties": { "ObjectID": 484, "NAME": "Provo Muni", "ICAO": null }, "geometry": { "type": "Point", "coordinates": [ -111.723358976845006, 40.219194949200173 ] } },
{ "type": "Feature", "properties": { "ObjectID": 485, "NAME": "Duchesne Muni", "ICAO": null }, "geometry": { "type": "Point", "coordinates": [ -110.380990976845013, 40.191897949200182 ] } },
{ "type": "Feature", "properties": { "ObjectID": 486, "NAME": "Meeker", "ICAO": null }, "geometry": { "type": "Point", "coordinates": [ -107.885920976845014, 40.048797949200178 ] } },
{ "type": "Feature", "properties": { "ObjectID": 487, "NAME": "Garfield Co Rgnl", "ICAO": null }, "geometry": { "type": "Point", "coordinates": [ -107.726935976845013, 39.526311949200178 ] } },
{ "type": "Feature", "properties": { "ObjectID": 488, "NAME": "Eagle Co Rgnl", "ICAO": "KEGE" }, "geometry": { "type": "Point", "coordinates": [ -106.917691976845006, 39.642564949200178 ] } },
{ "type": "Feature", "properties": { "ObjectID": 489, "NAME": "Laramie Rgnl", "ICAO": "KLAR" }, "geometry": { "type": "Point", "coordinates": [ -105.674998976845018, 41.312055949200172 ] } },
{ "type": "Feature", "properties": { "ObjectID": 490, "NAME": "Cheyenne Rgnl Jerry Olson Fld", "ICAO": "KCYS" }, "geometry": { "type": "Point", "coordinates": [ -104.811835976845018, 41.155725949200175 ] } },
{ "type": "Feature", "properties": { "ObjectID": 491, "NAME": "Western Neb Rgnl William B Heilig Fld", "ICAO": "KBFF" }, "geometry": { "type": "Point", "coordinates": [ -103.595638976845009, 41.874024949200177 ] } },
{ "type": "Feature", "properties": { "ObjectID": 492, "NAME": "Alliance Muni", "ICAO": null }, "geometry": { "type": "Point", "coordinates": [ -102.803764976845017, 42.053223949200174 ] } },
{ "type": "Feature", "properties": { "ObjectID": 493, "NAME": "Kimball Muni Robert E Arraj Fld", "ICAO": null }, "geometry": { "type": "Point", "coordinates": [ -103.677385976845017, 41.188053949200182 ] } },
{ "type": "Feature", "properties": { "ObjectID": 494, "NAME": "Sidney Muni Lloyd W Carr Fld", "ICAO": null }, "geometry": { "type": "Point", "coordinates": [ -102.985276976845014, 41.101329949200178 ] } },
{ "type": "Feature", "properties": { "ObjectID": 495, "NAME": "Garden Co", "ICAO": null }, "geometry": { "type": "Point", "coordinates": [ -102.355024976845016, 41.400975949200173 ] } },
{ "type": "Feature", "properties": { "ObjectID": 496, "NAME": "Fort Collins Downtown", "ICAO": null }, "geometry": { "type": "Point", "coordinates": [ -105.041677976845008, 40.588338949200178 ] } },
{ "type": "Feature", "properties": { "ObjectID": 497, "NAME": "Fort Collins  Loveland Muni", "ICAO": null }, "geometry": { "type": "Point", "coordinates": [ -105.011338976845011, 40.451826949200182 ] } },
{ "type": "Feature", "properties": { "ObjectID": 498, "NAME": "Greeley Weld Co", "ICAO": null }, "geometry": { "type": "Point", "coordinates": [ -104.633212976845016, 40.437408949200176 ] } },
{ "type": "Feature", "properties": { "ObjectID": 499, "NAME": "Vance Brand", "ICAO": null }, "geometry": { "type": "Point", "coordinates": [ -105.163033976845014, 40.163673949200174 ] } },
{ "type": "Feature", "properties": { "ObjectID": 500, "NAME": "Jeffco", "ICAO": null }, "geometry": { "type": "Point", "coordinates": [ -105.117214976845005, 39.908784949200182 ] } },
{ "type": "Feature", "properties": { "ObjectID": 501, "NAME": "Erie Municipal", "ICAO": null }, "geometry": { "type": "Point", "coordinates": [ -105.047977976845019, 40.010223949200181 ] } },
{ "type": "Feature", "properties": { "ObjectID": 502, "NAME": "Denver Intl", "ICAO": "KDEN" }, "geometry": { "type": "Point", "coordinates": [ -104.673181976845015, 39.86165194920018 ] } },
{ "type": "Feature", "properties": { "ObjectID": 503, "NAME": "Front Range", "ICAO": null }, "geometry": { "type": "Point", "coordinates": [ -104.54314097684501, 39.785250949200176 ] } },
{ "type": "Feature", "properties": { "ObjectID": 504, "NAME": "Centennial", "ICAO": null }, "geometry": { "type": "Point", "coordinates": [ -104.849293976845019, 39.570132949200172 ] } },
{ "type": "Feature", "properties": { "ObjectID": 505, "NAME": "Sterling Muni", "ICAO": null }, "geometry": { "type": "Point", "coordinates": [ -103.264852976845006, 40.615329949200174 ] } },
{ "type": "Feature", "properties": { "ObjectID": 506, "NAME": "Colorado Plains Regional", "ICAO": null }, "geometry": { "type": "Point", "coordinates": [ -103.222030976845005, 40.175634949200173 ] } },
{ "type": "Feature", "properties": { "ObjectID": 507, "NAME": "Pierre Rgnl", "ICAO": "KPIR" }, "geometry": { "type": "Point", "coordinates": [ -100.285960976845018, 44.382675949200177 ] } },
{ "type": "Feature", "properties": { "ObjectID": 508, "NAME": "Miller Muni", "ICAO": null }, "geometry": { "type": "Point", "coordinates": [ -98.958118976845014, 44.525244949200172 ] } },
{ "type": "Feature", "properties": { "ObjectID": 509, "NAME": "Watertown Muni", "ICAO": "KATY" }, "geometry": { "type": "Point", "coordinates": [ -97.154716976845009, 44.913981949200178 ] } },
{ "type": "Feature", "properties": { "ObjectID": 510, "NAME": "Huron Rgnl", "ICAO": "KHON" }, "geometry": { "type": "Point", "coordinates": [ -98.228542976845006, 44.385195949200181 ] } },
{ "type": "Feature", "properties": { "ObjectID": 511, "NAME": "Montevideo Chippewa Co", "ICAO": null }, "geometry": { "type": "Point", "coordinates": [ -95.710252976845013, 44.969052949200176 ] } },
{ "type": "Feature", "properties": { "ObjectID": 512, "NAME": "Brookings Muni", "ICAO": null }, "geometry": { "type": "Point", "coordinates": [ -96.816946976845017, 44.304834949200185 ] } },
{ "type": "Feature", "properties": { "ObjectID": 513, "NAME": "Southwest Minnesota Rgnl Marshall", "ICAO": null }, "geometry": { "type": "Point", "coordinates": [ -95.822338976845018, 44.450067949200175 ] } },
{ "type": "Feature", "properties": { "ObjectID": 514, "NAME": "Madison Muni", "ICAO": null }, "geometry": { "type": "Point", "coordinates": [ -97.085929976845009, 44.015970949200181 ] } },
{ "type": "Feature", "properties": { "ObjectID": 515, "NAME": "Mitchell Muni", "ICAO": null }, "geometry": { "type": "Point", "coordinates": [ -98.038615976845009, 43.774833949200172 ] } },
{ "type": "Feature", "properties": { "ObjectID": 516, "NAME": "Miller Fld", "ICAO": null }, "geometry": { "type": "Point", "coordinates": [ -100.547536976845009, 42.857823949200181 ] } },
{ "type": "Feature", "properties": { "ObjectID": 517, "NAME": "Ainsworth Muni", "ICAO": null }, "geometry": { "type": "Point", "coordinates": [ -99.992974976845005, 42.57921994920018 ] } },
{ "type": "Feature", "properties": { "ObjectID": 518, "NAME": "Parkston Muni", "ICAO": null }, "geometry": { "type": "Point", "coordinates": [ -97.971187976845016, 43.379157949200177 ] } },
{ "type": "Feature", "properties": { "ObjectID": 519, "NAME": "Wagner Muni", "ICAO": null }, "geometry": { "type": "Point", "coordinates": [ -98.296186976845007, 43.063329949200181 ] } },
{ "type": "Feature", "properties": { "ObjectID": 520, "NAME": "Chan Gurney Muni", "ICAO": "KYKN" },